{"id": "01001","type": "village","name": "L'Abergement-Clémenciat","postcode": "01400","lat": "46.150598","lon": "4.920347","city": "L'Abergement-Clémenciat","departement": "Ain", "region": "Rhône-Alpes", "population": 0.8, "adm_weight": 1, "importance": 0.075}
{"id": "01002","type": "village","name": "L'Abergement-de-Varey","postcode": "01640","lat": "46.006742","lon": "5.423379","city": "L'Abergement-de-Varey","departement": "Ain", "region": "Rhône-Alpes", "population": 0.2, "adm_weight": 1, "importance": 0.075}
{"id": "01004","type": "city","name": "Ambérieu-en-Bugey","postcode": "01500","lat": "45.957700","lon": "5.356635","city": "Ambérieu-en-Bugey","departement": "Ain", "region": "Rhône-Alpes", "population": 13.4, "adm_weight": 2, "importance": 0.3777}
{"id": "01005","type": "town","name": "Ambérieux-en-Dombes","postcode": "01330","lat": "45.997777","lon": "4.902089","city": "Ambérieux-en-Dombes","departement": "Ain", "region": "Rhône-Alpes", "population": 1.6, "adm_weight": 1, "importance": 0.075}
{"id": "01006","type": "village","name": "Ambléon","postcode": "01300","lat": "45.748721","lon": "5.601236","city": "Ambléon","departement": "Ain", "region": "Rhône-Alpes", "population": 0.1, "adm_weight": 1, "importance": 0.075}
{"id": "01007","type": "town","name": "Ambronay","postcode": "01500","lat": "46.005378","lon": "5.359970","city": "Ambronay","departement": "Ain", "region": "Rhône-Alpes", "population": 2.3, "adm_weight": 1, "importance": 0.075}
{"id": "01008","type": "village","name": "Ambutrix","postcode": "01500","lat": "45.939173","lon": "5.337764","city": "Ambutrix","departement": "Ain", "region": "Rhône-Alpes", "population": 0.7, "adm_weight": 1, "importance": 0.075}
{"id": "01009","type": "village","name": "Andert-et-Condon","postcode": "01300","lat": "45.794322","lon": "5.654905","city": "Andert-et-Condon","departement": "Ain", "region": "Rhône-Alpes", "population": 0.3, "adm_weight": 1, "importance": 0.075}
{"id": "01010","type": "town","name": "Anglefort","postcode": "01350","lat": "45.911365","lon": "5.807696","city": "Anglefort","departement": "Ain", "region": "Rhône-Alpes", "population": 1.0, "adm_weight": 1, "importance": 0.075}
{"id": "01011","type": "village","name": "Apremont","postcode": "01100","lat": "46.206967","lon": "5.655429","city": "Apremont","departement": "Ain", "region": "Rhône-Alpes", "population": 0.4, "adm_weight": 1, "importance": 0.075}
{"id": "01012","type": "village","name": "Aranc","postcode": "01110","lat": "46.003986","lon": "5.508584","city": "Aranc","departement": "Ain", "region": "Rhône-Alpes", "population": 0.3, "adm_weight": 1, "importance": 0.075}
{"id": "01013","type": "village","name": "Arandas","postcode": "01230","lat": "45.894580","lon": "5.485541","city": "Arandas","departement": "Ain", "region": "Rhône-Alpes", "population": 0.2, "adm_weight": 1, "importance": 0.075}
{"id": "01014","type": "town","name": "Arbent","postcode": "01100","lat": "46.294677","lon": "5.680483","city": "Arbent","departement": "Ain", "region": "Rhône-Alpes", "population": 3.5, "adm_weight": 1, "importance": 0.0856}
{"id": "01015","type": "village","name": "Arbignieu","postcode": "01300","lat": "45.727753","lon": "5.650421","city": "Arbignieu","departement": "Ain", "region": "Rhône-Alpes", "population": 0.5, "adm_weight": 1, "importance": 0.075}
{"id": "01016","type": "village","name": "Arbigny","postcode": "01190","lat": "46.469660","lon": "4.961563","city": "Arbigny","departement": "Ain", "region": "Rhône-Alpes", "population": 0.4, "adm_weight": 1, "importance": 0.075}
{"id": "01017","type": "village","name": "Argis","postcode": "01230","lat": "45.933225","lon": "5.489867","city": "Argis","departement": "Ain", "region": "Rhône-Alpes", "population": 0.4, "adm_weight": 1, "importance": 0.075}
{"id": "01019","type": "village","name": "Armix","postcode": "01510","lat": "45.849094","lon": "5.585341","city": "Armix","departement": "Ain", "region": "Rhône-Alpes", "population": 0.0, "adm_weight": 1, "importance": 0.075}
{"id": "01021","type": "town","name": "Ars-sur-Formans","postcode": "01480","lat": "45.991891","lon": "4.821765","city": "Ars-sur-Formans","departement": "Ain", "region": "Rhône-Alpes", "population": 1.3, "adm_weight": 1, "importance": 0.075}
{"id": "01022","type": "town","name": "Artemare","postcode": "01510","lat": "45.873627","lon": "5.692260","city": "Artemare","departement": "Ain", "region": "Rhône-Alpes", "population": 1.1, "adm_weight": 1, "importance": 0.075}
{"id": "01023","type": "village","name": "Asnières-sur-Saône","postcode": "01570","lat": "46.383612","lon": "4.882983","city": "Asnières-sur-Saône","departement": "Ain", "region": "Rhône-Alpes", "population": 0.1, "adm_weight": 1, "importance": 0.075}
{"id": "01024","type": "town","name": "Attignat","postcode": "01340","lat": "46.286840","lon": "5.159004","city": "Attignat","departement": "Ain", "region": "Rhône-Alpes", "population": 2.9, "adm_weight": 1, "importance": 0.0781}
{"id": "01025","type": "town","name": "Bâgé-la-Ville","postcode": "01380","lat": "46.315028","lon": "4.944319","city": "Bâgé-la-Ville","departement": "Ain", "region": "Rhône-Alpes", "population": 3.0, "adm_weight": 1, "importance": 0.0794}
{"id": "01026","type": "village","name": "Bâgé-le-Châtel","postcode": "01380","lat": "46.307191","lon": "4.928443","city": "Bâgé-le-Châtel","departement": "Ain", "region": "Rhône-Alpes", "population": 0.8, "adm_weight": 2, "importance": 0.3191}
{"id": "01027","type": "town","name": "Balan","postcode": "01360","lat": "45.833983","lon": "5.097471","city": "Balan","departement": "Ain", "region": "Rhône-Alpes", "population": 2.4, "adm_weight": 1, "importance": 0.075}
{"id": "01028","type": "village","name": "Baneins","postcode": "01990","lat": "46.109492","lon": "4.900779","city": "Baneins","departement": "Ain", "region": "Rhône-Alpes", "population": 0.6, "adm_weight": 1, "importance": 0.075}
{"id": "01029","type": "village","name": "Beaupont","postcode": "01270","lat": "46.410863","lon": "5.266792","city": "Beaupont","departement": "Ain", "region": "Rhône-Alpes", "population": 0.6, "adm_weight": 1, "importance": 0.075}
{"id": "01030","type": "village","name": "Beauregard","postcode": "01480","lat": "46.001114","lon": "4.750984","city": "Beauregard","departement": "Ain", "region": "Rhône-Alpes", "population": 0.9, "adm_weight": 1, "importance": 0.075}
{"id": "01031","type": "town","name": "Bellignat","postcode": "01100","lat": "46.244439","lon": "5.632573","city": "Bellignat","departement": "Ain", "region": "Rhône-Alpes", "population": 3.5, "adm_weight": 1, "importance": 0.0856}
{"id": "01032","type": "town","name": "Béligneux","postcode": "01360","lat": "45.851433","lon": "5.127783","city": "Béligneux","departement": "Ain", "region": "Rhône-Alpes", "population": 2.9, "adm_weight": 1, "importance": 0.0781}
{"id": "01033","type": "city","name": "Bellegarde-sur-Valserine","postcode": "01200","lat": "46.107355","lon": "5.825492","city": "Bellegarde-sur-Valserine","departement": "Ain", "region": "Rhône-Alpes", "population": 11.7, "adm_weight": 2, "importance": 0.3744}
{"id": "01034","type": "town","name": "Belley","postcode": "01300","lat": "45.758400","lon": "5.687933","city": "Belley","departement": "Ain", "region": "Rhône-Alpes", "population": 8.7, "adm_weight": 3, "importance": 0.5223}
{"id": "01035","type": "village","name": "Belleydoux","postcode": "01130","lat": "46.251815","lon": "5.777095","city": "Belleydoux","departement": "Ain", "region": "Rhône-Alpes", "population": 0.3, "adm_weight": 1, "importance": 0.075}
{"id": "01036","type": "village","name": "Belmont-Luthézieu","postcode": "01260","lat": "45.880690","lon": "5.660354","city": "Belmont-Luthézieu","departement": "Ain", "region": "Rhône-Alpes", "population": 0.5, "adm_weight": 1, "importance": 0.075}
{"id": "01037","type": "village","name": "Bénonces","postcode": "01470","lat": "45.827246","lon": "5.474776","city": "Bénonces","departement": "Ain", "region": "Rhône-Alpes", "population": 0.3, "adm_weight": 1, "importance": 0.075}
{"id": "01038","type": "village","name": "Bény","postcode": "01370","lat": "46.319564","lon": "5.282511","city": "Bény","departement": "Ain", "region": "Rhône-Alpes", "population": 0.7, "adm_weight": 1, "importance": 0.075}
{"id": "01039","type": "village","name": "Béon","postcode": "01350","lat": "45.854106","lon": "5.754491","city": "Béon","departement": "Ain", "region": "Rhône-Alpes", "population": 0.4, "adm_weight": 1, "importance": 0.075}
{"id": "01040","type": "village","name": "Béréziat","postcode": "01340","lat": "46.366410","lon": "5.045037","city": "Béréziat","departement": "Ain", "region": "Rhône-Alpes", "population": 0.4, "adm_weight": 1, "importance": 0.075}
{"id": "01041","type": "village","name": "Bettant","postcode": "01500","lat": "45.943164","lon": "5.362469","city": "Bettant","departement": "Ain", "region": "Rhône-Alpes", "population": 0.7, "adm_weight": 1, "importance": 0.075}
{"id": "01042","type": "village","name": "Bey","postcode": "01290","lat": "46.219403","lon": "4.844899","city": "Bey","departement": "Ain", "region": "Rhône-Alpes", "population": 0.2, "adm_weight": 1, "importance": 0.075}
{"id": "01043","type": "town","name": "Beynost","postcode": "01700","lat": "45.840237","lon": "5.001048","city": "Beynost","departement": "Ain", "region": "Rhône-Alpes", "population": 4.4, "adm_weight": 1, "importance": 0.0949}
{"id": "01044","type": "village","name": "Billiat","postcode": "01200","lat": "46.076817","lon": "5.785079","city": "Billiat","departement": "Ain", "region": "Rhône-Alpes", "population": 0.5, "adm_weight": 1, "importance": 0.075}
{"id": "01045","type": "village","name": "Birieux","postcode": "01330","lat": "45.952140","lon": "5.039983","city": "Birieux","departement": "Ain", "region": "Rhône-Alpes", "population": 0.2, "adm_weight": 1, "importance": 0.075}
{"id": "01046","type": "village","name": "Biziat","postcode": "01290","lat": "46.216839","lon": "4.944728","city": "Biziat","departement": "Ain", "region": "Rhône-Alpes", "population": 0.8, "adm_weight": 1, "importance": 0.075}
{"id": "01047","type": "village","name": "Blyes","postcode": "01150","lat": "45.846387","lon": "5.248755","city": "Blyes","departement": "Ain", "region": "Rhône-Alpes", "population": 0.9, "adm_weight": 1, "importance": 0.075}
{"id": "01049","type": "town","name": "La Boisse","postcode": "01120","lat": "45.841439","lon": "5.034601","city": "La Boisse","departement": "Ain", "region": "Rhône-Alpes", "population": 2.9, "adm_weight": 1, "importance": 0.0781}
{"id": "01050","type": "village","name": "Boissey","postcode": "01380","lat": "46.380811","lon": "4.994816","city": "Boissey","departement": "Ain", "region": "Rhône-Alpes", "population": 0.3, "adm_weight": 1, "importance": 0.075}
{"id": "01051","type": "village","name": "Bolozon","postcode": "01450","lat": "46.192132","lon": "5.474383","city": "Bolozon","departement": "Ain", "region": "Rhône-Alpes", "population": 0.1, "adm_weight": 1, "importance": 0.075}
{"id": "01052","type": "village","name": "Bouligneux","postcode": "01330","lat": "46.022374","lon": "4.990866","city": "Bouligneux","departement": "Ain", "region": "Rhône-Alpes", "population": 0.3, "adm_weight": 1, "importance": 0.075}
{"id": "01053","type": "city","name": "Bourg-en-Bresse","postcode": "01000","lat": "46.204452","lon": "5.227117","city": "Bourg-en-Bresse","departement": "Ain", "region": "Rhône-Alpes", "population": 39.6, "adm_weight": 4, "importance": 0.6567}
{"id": "01054","type": "town","name": "Bourg-Saint-Christophe","postcode": "01800","lat": "45.890453","lon": "5.160250","city": "Bourg-Saint-Christophe","departement": "Ain", "region": "Rhône-Alpes", "population": 1.1, "adm_weight": 1, "importance": 0.075}
{"id": "01056","type": "village","name": "Boyeux-Saint-Jérôme","postcode": "01640","lat": "46.029476","lon": "5.455423","city": "Boyeux-Saint-Jérôme","departement": "Ain", "region": "Rhône-Alpes", "population": 0.3, "adm_weight": 1, "importance": 0.075}
{"id": "01057","type": "village","name": "Boz","postcode": "01190","lat": "46.406607","lon": "4.908516","city": "Boz","departement": "Ain", "region": "Rhône-Alpes", "population": 0.5, "adm_weight": 1, "importance": 0.075}
{"id": "01058","type": "village","name": "Brégnier-Cordon","postcode": "01300","lat": "45.648286","lon": "5.619640","city": "Brégnier-Cordon","departement": "Ain", "region": "Rhône-Alpes", "population": 0.8, "adm_weight": 1, "importance": 0.075}
{"id": "01059","type": "village","name": "Brénaz","postcode": "01260","lat": "45.947707","lon": "5.721715","city": "Brénaz","departement": "Ain", "region": "Rhône-Alpes", "population": 0.1, "adm_weight": 1, "importance": 0.075}
{"id": "01060","type": "village","name": "Brénod","postcode": "01110","lat": "46.060359","lon": "5.605635","city": "Brénod","departement": "Ain", "region": "Rhône-Alpes", "population": 0.5, "adm_weight": 2, "importance": 0.3136}
{"id": "01061","type": "town","name": "Brens","postcode": "01300","lat": "45.717718","lon": "5.693673","city": "Brens","departement": "Ain", "region": "Rhône-Alpes", "population": 1.1, "adm_weight": 1, "importance": 0.075}
{"id": "01062","type": "village","name": "Bressolles","postcode": "01360","lat": "45.866461","lon": "5.094837","city": "Bressolles","departement": "Ain", "region": "Rhône-Alpes", "population": 0.7, "adm_weight": 1, "importance": 0.075}
{"id": "01063","type": "village","name": "Brion","postcode": "01460","lat": "46.172412","lon": "5.551303","city": "Brion","departement": "Ain", "region": "Rhône-Alpes", "population": 0.5, "adm_weight": 1, "importance": 0.075}
{"id": "01064","type": "village","name": "Briord","postcode": "01470","lat": "45.781653","lon": "5.458569","city": "Briord","departement": "Ain", "region": "Rhône-Alpes", "population": 0.9, "adm_weight": 1, "importance": 0.075}
{"id": "01065","type": "town","name": "Buellas","postcode": "01310","lat": "46.208967","lon": "5.132581","city": "Buellas","departement": "Ain", "region": "Rhône-Alpes", "population": 1.6, "adm_weight": 1, "importance": 0.075}
{"id": "01066","type": "village","name": "La Burbanche","postcode": "01510","lat": "45.846081","lon": "5.559416","city": "La Burbanche","departement": "Ain", "region": "Rhône-Alpes", "population": 0.1, "adm_weight": 1, "importance": 0.075}
{"id": "01067","type": "village","name": "Ceignes","postcode": "01430","lat": "46.119534","lon": "5.498318","city": "Ceignes","departement": "Ain", "region": "Rhône-Alpes", "population": 0.3, "adm_weight": 1, "importance": 0.075}
{"id": "01068","type": "village","name": "Cerdon","postcode": "01450","lat": "46.079711","lon": "5.465436","city": "Cerdon","departement": "Ain", "region": "Rhône-Alpes", "population": 0.8, "adm_weight": 1, "importance": 0.075}
{"id": "01069","type": "town","name": "Certines","postcode": "01240","lat": "46.131649","lon": "5.264330","city": "Certines","departement": "Ain", "region": "Rhône-Alpes", "population": 1.4, "adm_weight": 1, "importance": 0.075}
{"id": "01071","type": "town","name": "Cessy","postcode": "01170","lat": "46.318205","lon": "6.069181","city": "Cessy","departement": "Ain", "region": "Rhône-Alpes", "population": 3.8, "adm_weight": 1, "importance": 0.0889}
{"id": "01072","type": "town","name": "Ceyzériat","postcode": "01250","lat": "46.178204","lon": "5.323314","city": "Ceyzériat","departement": "Ain", "region": "Rhône-Alpes", "population": 2.7, "adm_weight": 2, "importance": 0.3403}
{"id": "01073","type": "village","name": "Ceyzérieu","postcode": "01350","lat": "45.834995","lon": "5.725178","city": "Ceyzérieu","departement": "Ain", "region": "Rhône-Alpes", "population": 0.9, "adm_weight": 1, "importance": 0.075}
{"id": "01074","type": "town","name": "Chalamont","postcode": "01320","lat": "45.995648","lon": "5.170842","city": "Chalamont","departement": "Ain", "region": "Rhône-Alpes", "population": 2.3, "adm_weight": 2, "importance": 0.3370}
{"id": "01075","type": "town","name": "Chaleins","postcode": "01480","lat": "46.030012","lon": "4.803630","city": "Chaleins","departement": "Ain", "region": "Rhône-Alpes", "population": 1.2, "adm_weight": 1, "importance": 0.075}
{"id": "01076","type": "village","name": "Chaley","postcode": "01230","lat": "45.954839","lon": "5.530887","city": "Chaley","departement": "Ain", "region": "Rhône-Alpes", "population": 0.1, "adm_weight": 1, "importance": 0.075}
{"id": "01077","type": "village","name": "Challes-la-Montagne","postcode": "01450","lat": "46.124798","lon": "5.463574","city": "Challes-la-Montagne","departement": "Ain", "region": "Rhône-Alpes", "population": 0.2, "adm_weight": 1, "importance": 0.075}
{"id": "01078","type": "town","name": "Challex","postcode": "01630","lat": "46.181008","lon": "5.975877","city": "Challex","departement": "Ain", "region": "Rhône-Alpes", "population": 1.2, "adm_weight": 1, "importance": 0.075}
{"id": "01079","type": "village","name": "Champagne-en-Valromey","postcode": "01260","lat": "45.903724","lon": "5.676953","city": "Champagne-en-Valromey","departement": "Ain", "region": "Rhône-Alpes", "population": 0.8, "adm_weight": 2, "importance": 0.3191}
{"id": "01080","type": "village","name": "Champdor","postcode": "01110","lat": "46.016407","lon": "5.597086","city": "Champdor","departement": "Ain", "region": "Rhône-Alpes", "population": 0.5, "adm_weight": 1, "importance": 0.075}
{"id": "01081","type": "village","name": "Champfromier","postcode": "01410","lat": "46.193200","lon": "5.815645","city": "Champfromier","departement": "Ain", "region": "Rhône-Alpes", "population": 0.7, "adm_weight": 1, "importance": 0.075}
{"id": "01082","type": "village","name": "Chanay","postcode": "01420","lat": "46.005627","lon": "5.785354","city": "Chanay","departement": "Ain", "region": "Rhône-Alpes", "population": 0.6, "adm_weight": 1, "importance": 0.075}
{"id": "01083","type": "village","name": "Chaneins","postcode": "01990","lat": "46.095901","lon": "4.851109","city": "Chaneins","departement": "Ain", "region": "Rhône-Alpes", "population": 0.8, "adm_weight": 1, "importance": 0.075}
{"id": "01084","type": "village","name": "Chanoz-Châtenay","postcode": "01400","lat": "46.182936","lon": "5.029116","city": "Chanoz-Châtenay","departement": "Ain", "region": "Rhône-Alpes", "population": 0.7, "adm_weight": 1, "importance": 0.075}
{"id": "01085","type": "village","name": "La Chapelle-du-Châtelard","postcode": "01240","lat": "46.068612","lon": "5.024894","city": "La Chapelle-du-Châtelard","departement": "Ain", "region": "Rhône-Alpes", "population": 0.3, "adm_weight": 1, "importance": 0.075}
{"id": "01087","type": "village","name": "Charix","postcode": "01130","lat": "46.182868","lon": "5.684097","city": "Charix","departement": "Ain", "region": "Rhône-Alpes", "population": 0.3, "adm_weight": 1, "importance": 0.075}
{"id": "01088","type": "village","name": "Charnoz-sur-Ain","postcode": "01800","lat": "45.872151","lon": "5.221434","city": "Charnoz-sur-Ain","departement": "Ain", "region": "Rhône-Alpes", "population": 0.9, "adm_weight": 1, "importance": 0.075}
{"id": "01089","type": "town","name": "Château-Gaillard","postcode": "01500","lat": "45.973218","lon": "5.303033","city": "Château-Gaillard","departement": "Ain", "region": "Rhône-Alpes", "population": 1.8, "adm_weight": 1, "importance": 0.075}
{"id": "01090","type": "village","name": "Châtenay","postcode": "01320","lat": "46.032905","lon": "5.200767","city": "Châtenay","departement": "Ain", "region": "Rhône-Alpes", "population": 0.3, "adm_weight": 1, "importance": 0.075}
{"id": "01091","type": "town","name": "Châtillon-en-Michaille","postcode": "01200","lat": "46.144057","lon": "5.798863","city": "Châtillon-en-Michaille","departement": "Ain", "region": "Rhône-Alpes", "population": 3.1, "adm_weight": 1, "importance": 0.0807}
{"id": "01092","type": "town","name": "Châtillon-la-Palud","postcode": "01320","lat": "45.975208","lon": "5.248850","city": "Châtillon-la-Palud","departement": "Ain", "region": "Rhône-Alpes", "population": 1.5, "adm_weight": 1, "importance": 0.075}
{"id": "01093","type": "town","name": "Châtillon-sur-Chalaronne","postcode": "01400","lat": "46.119349","lon": "4.956818","city": "Châtillon-sur-Chalaronne","departement": "Ain", "region": "Rhône-Alpes", "population": 4.9, "adm_weight": 2, "importance": 0.3535}
{"id": "01094","type": "village","name": "Chavannes-sur-Reyssouze","postcode": "01190","lat": "46.430389","lon": "4.992719","city": "Chavannes-sur-Reyssouze","departement": "Ain", "region": "Rhône-Alpes", "population": 0.7, "adm_weight": 1, "importance": 0.075}
{"id": "01095","type": "village","name": "Chavannes-sur-Suran","postcode": "01250","lat": "46.262553","lon": "5.425609","city": "Chavannes-sur-Suran","departement": "Ain", "region": "Rhône-Alpes", "population": 0.7, "adm_weight": 1, "importance": 0.075}
{"id": "01096","type": "village","name": "Chaveyriat","postcode": "01660","lat": "46.196803","lon": "5.059464","city": "Chaveyriat","departement": "Ain", "region": "Rhône-Alpes", "population": 0.9, "adm_weight": 1, "importance": 0.075}
{"id": "01097","type": "village","name": "Chavornay","postcode": "01510","lat": "45.879279","lon": "5.719627","city": "Chavornay","departement": "Ain", "region": "Rhône-Alpes", "population": 0.2, "adm_weight": 1, "importance": 0.075}
{"id": "01098","type": "village","name": "Chazey-Bons","postcode": "01300","lat": "45.802713","lon": "5.681073","city": "Chazey-Bons","departement": "Ain", "region": "Rhône-Alpes", "population": 0.7, "adm_weight": 1, "importance": 0.075}
{"id": "01099","type": "town","name": "Chazey-sur-Ain","postcode": "01150","lat": "45.892242","lon": "5.253206","city": "Chazey-sur-Ain","departement": "Ain", "region": "Rhône-Alpes", "population": 1.4, "adm_weight": 1, "importance": 0.075}
{"id": "01100","type": "village","name": "Cheignieu-la-Balme","postcode": "01510","lat": "45.826961","lon": "5.607502","city": "Cheignieu-la-Balme","departement": "Ain", "region": "Rhône-Alpes", "population": 0.2, "adm_weight": 1, "importance": 0.075}
{"id": "01101","type": "village","name": "Chevillard","postcode": "01430","lat": "46.108680","lon": "5.580725","city": "Chevillard","departement": "Ain", "region": "Rhône-Alpes", "population": 0.2, "adm_weight": 1, "importance": 0.075}
{"id": "01102","type": "village","name": "Chevroux","postcode": "01190","lat": "46.379820","lon": "4.947926","city": "Chevroux","departement": "Ain", "region": "Rhône-Alpes", "population": 0.9, "adm_weight": 1, "importance": 0.075}
{"id": "01103","type": "town","name": "Chevry","postcode": "01170","lat": "46.280349","lon": "6.035865","city": "Chevry","departement": "Ain", "region": "Rhône-Alpes", "population": 1.2, "adm_weight": 1, "importance": 0.075}
{"id": "01104","type": "village","name": "Chézery-Forens","postcode": "01410","lat": "46.221666","lon": "5.866438","city": "Chézery-Forens","departement": "Ain", "region": "Rhône-Alpes", "population": 0.4, "adm_weight": 1, "importance": 0.075}
{"id": "01105","type": "town","name": "Civrieux","postcode": "01390","lat": "45.920680","lon": "4.880068","city": "Civrieux","departement": "Ain", "region": "Rhône-Alpes", "population": 1.3, "adm_weight": 1, "importance": 0.075}
{"id": "01106","type": "village","name": "Cize","postcode": "01250","lat": "46.203578","lon": "5.445057","city": "Cize","departement": "Ain", "region": "Rhône-Alpes", "population": 0.2, "adm_weight": 1, "importance": 0.075}
{"id": "01107","type": "village","name": "Cleyzieu","postcode": "01230","lat": "45.907486","lon": "5.430629","city": "Cleyzieu","departement": "Ain", "region": "Rhône-Alpes", "population": 0.1, "adm_weight": 1, "importance": 0.075}
{"id": "01108","type": "town","name": "Coligny","postcode": "01270","lat": "46.382256","lon": "5.345009","city": "Coligny","departement": "Ain", "region": "Rhône-Alpes", "population": 1.1, "adm_weight": 2, "importance": 0.3237}
{"id": "01109","type": "town","name": "Collonges","postcode": "01550","lat": "46.137824","lon": "5.903537","city": "Collonges","departement": "Ain", "region": "Rhône-Alpes", "population": 1.8, "adm_weight": 2, "importance": 0.3322}
{"id": "01110","type": "village","name": "Colomieu","postcode": "01300","lat": "45.732945","lon": "5.621079","city": "Colomieu","departement": "Ain", "region": "Rhône-Alpes", "population": 0.1, "adm_weight": 1, "importance": 0.075}
{"id": "01111","type": "village","name": "Conand","postcode": "01230","lat": "45.892219","lon": "5.469952","city": "Conand","departement": "Ain", "region": "Rhône-Alpes", "population": 0.1, "adm_weight": 1, "importance": 0.075}
{"id": "01112","type": "village","name": "Condamine","postcode": "01430","lat": "46.108453","lon": "5.550922","city": "Condamine","departement": "Ain", "region": "Rhône-Alpes", "population": 0.4, "adm_weight": 1, "importance": 0.075}
{"id": "01113","type": "village","name": "Condeissiat","postcode": "01400","lat": "46.157694","lon": "5.080033","city": "Condeissiat","departement": "Ain", "region": "Rhône-Alpes", "population": 0.8, "adm_weight": 1, "importance": 0.075}
{"id": "01114","type": "village","name": "Confort","postcode": "01200","lat": "46.149780","lon": "5.822491","city": "Confort","departement": "Ain", "region": "Rhône-Alpes", "population": 0.5, "adm_weight": 1, "importance": 0.075}
{"id": "01115","type": "town","name": "Confrançon","postcode": "01310","lat": "46.266970","lon": "5.064701","city": "Confrançon","departement": "Ain", "region": "Rhône-Alpes", "population": 1.1, "adm_weight": 1, "importance": 0.075}
{"id": "01116","type": "village","name": "Contrevoz","postcode": "01300","lat": "45.805754","lon": "5.628401","city": "Contrevoz","departement": "Ain", "region": "Rhône-Alpes", "population": 0.5, "adm_weight": 1, "importance": 0.075}
{"id": "01117","type": "village","name": "Conzieu","postcode": "01300","lat": "45.726072","lon": "5.606602","city": "Conzieu","departement": "Ain", "region": "Rhône-Alpes", "population": 0.1, "adm_weight": 1, "importance": 0.075}
{"id": "01118","type": "town","name": "Corbonod","postcode": "01420","lat": "45.970824","lon": "5.808145","city": "Corbonod","departement": "Ain", "region": "Rhône-Alpes", "population": 1.2, "adm_weight": 1, "importance": 0.075}
{"id": "01119","type": "village","name": "Corcelles","postcode": "01110","lat": "46.034968","lon": "5.573384","city": "Corcelles","departement": "Ain", "region": "Rhône-Alpes", "population": 0.2, "adm_weight": 1, "importance": 0.075}
{"id": "01121","type": "village","name": "Corlier","postcode": "01110","lat": "46.030344","lon": "5.498145","city": "Corlier","departement": "Ain", "region": "Rhône-Alpes", "population": 0.1, "adm_weight": 1, "importance": 0.075}
{"id": "01122","type": "village","name": "Cormaranche-en-Bugey","postcode": "01110","lat": "45.953021","lon": "5.610888","city": "Cormaranche-en-Bugey","departement": "Ain", "region": "Rhône-Alpes", "population": 0.9, "adm_weight": 1, "importance": 0.075}
{"id": "01123","type": "town","name": "Cormoranche-sur-Saône","postcode": "01290","lat": "46.240339","lon": "4.831325","city": "Cormoranche-sur-Saône","departement": "Ain", "region": "Rhône-Alpes", "population": 1.1, "adm_weight": 1, "importance": 0.075}
{"id": "01124","type": "village","name": "Cormoz","postcode": "01560","lat": "46.448485","lon": "5.231864","city": "Cormoz","departement": "Ain", "region": "Rhône-Alpes", "population": 0.6, "adm_weight": 1, "importance": 0.075}
{"id": "01125","type": "village","name": "Corveissiat","postcode": "01250","lat": "46.242450","lon": "5.480552","city": "Corveissiat","departement": "Ain", "region": "Rhône-Alpes", "population": 0.6, "adm_weight": 1, "importance": 0.075}
{"id": "01127","type": "village","name": "Courmangoux","postcode": "01370","lat": "46.330415","lon": "5.368796","city": "Courmangoux","departement": "Ain", "region": "Rhône-Alpes", "population": 0.5, "adm_weight": 1, "importance": 0.075}
{"id": "01128","type": "village","name": "Courtes","postcode": "01560","lat": "46.459104","lon": "5.099345","city": "Courtes","departement": "Ain", "region": "Rhône-Alpes", "population": 0.3, "adm_weight": 1, "importance": 0.075}
{"id": "01129","type": "village","name": "Crans","postcode": "01320","lat": "45.964645","lon": "5.190288","city": "Crans","departement": "Ain", "region": "Rhône-Alpes", "population": 0.3, "adm_weight": 1, "importance": 0.075}
{"id": "01130","type": "town","name": "Cras-sur-Reyssouze","postcode": "01340","lat": "46.307444","lon": "5.165016","city": "Cras-sur-Reyssouze","departement": "Ain", "region": "Rhône-Alpes", "population": 1.2, "adm_weight": 1, "importance": 0.075}
{"id": "01133","type": "village","name": "Cressin-Rochefort","postcode": "01350","lat": "45.785428","lon": "5.762656","city": "Cressin-Rochefort","departement": "Ain", "region": "Rhône-Alpes", "population": 0.4, "adm_weight": 1, "importance": 0.075}
{"id": "01134","type": "town","name": "Crottet","postcode": "01290","lat": "46.277193","lon": "4.891013","city": "Crottet","departement": "Ain", "region": "Rhône-Alpes", "population": 1.7, "adm_weight": 1, "importance": 0.075}
{"id": "01135","type": "town","name": "Crozet","postcode": "01170","lat": "46.280104","lon": "6.011158","city": "Crozet","departement": "Ain", "region": "Rhône-Alpes", "population": 1.8, "adm_weight": 1, "importance": 0.075}
{"id": "01136","type": "village","name": "Cruzilles-lès-Mépillat","postcode": "01290","lat": "46.224231","lon": "4.880101","city": "Cruzilles-lès-Mépillat","departement": "Ain", "region": "Rhône-Alpes", "population": 0.8, "adm_weight": 1, "importance": 0.075}
{"id": "01138","type": "town","name": "Culoz","postcode": "01350","lat": "45.848044","lon": "5.781264","city": "Culoz","departement": "Ain", "region": "Rhône-Alpes", "population": 2.9, "adm_weight": 1, "importance": 0.0781}
{"id": "01139","type": "village","name": "Curciat-Dongalon","postcode": "01560","lat": "46.474239","lon": "5.157295","city": "Curciat-Dongalon","departement": "Ain", "region": "Rhône-Alpes", "population": 0.5, "adm_weight": 1, "importance": 0.075}
{"id": "01140","type": "village","name": "Curtafond","postcode": "01310","lat": "46.271945","lon": "5.088271","city": "Curtafond","departement": "Ain", "region": "Rhône-Alpes", "population": 0.7, "adm_weight": 1, "importance": 0.075}
{"id": "01141","type": "village","name": "Cuzieu","postcode": "01300","lat": "45.818196","lon": "5.674093","city": "Cuzieu","departement": "Ain", "region": "Rhône-Alpes", "population": 0.4, "adm_weight": 1, "importance": 0.075}
{"id": "01142","type": "town","name": "Dagneux","postcode": "01120","lat": "45.851657","lon": "5.067205","city": "Dagneux","departement": "Ain", "region": "Rhône-Alpes", "population": 4.0, "adm_weight": 1, "importance": 0.0910}
{"id": "01143","type": "town","name": "Divonne-les-Bains","postcode": "01220","lat": "46.356783","lon": "6.141631","city": "Divonne-les-Bains","departement": "Ain", "region": "Rhône-Alpes", "population": 7.9, "adm_weight": 1, "importance": 0.1194}
{"id": "01144","type": "village","name": "Dommartin","postcode": "01380","lat": "46.336770","lon": "4.989308","city": "Dommartin","departement": "Ain", "region": "Rhône-Alpes", "population": 0.8, "adm_weight": 1, "importance": 0.075}
{"id": "01145","type": "town","name": "Dompierre-sur-Veyle","postcode": "01240","lat": "46.070686","lon": "5.203575","city": "Dompierre-sur-Veyle","departement": "Ain", "region": "Rhône-Alpes", "population": 1.2, "adm_weight": 1, "importance": 0.075}
{"id": "01146","type": "village","name": "Dompierre-sur-Chalaronne","postcode": "01400","lat": "46.142779","lon": "4.903228","city": "Dompierre-sur-Chalaronne","departement": "Ain", "region": "Rhône-Alpes", "population": 0.4, "adm_weight": 1, "importance": 0.075}
{"id": "01147","type": "village","name": "Domsure","postcode": "01270","lat": "46.418417","lon": "5.294460","city": "Domsure","departement": "Ain", "region": "Rhône-Alpes", "population": 0.5, "adm_weight": 1, "importance": 0.075}
{"id": "01148","type": "town","name": "Dortan","postcode": "01590","lat": "46.318624","lon": "5.658250","city": "Dortan","departement": "Ain", "region": "Rhône-Alpes", "population": 2.1, "adm_weight": 1, "importance": 0.075}
{"id": "01149","type": "village","name": "Douvres","postcode": "01500","lat": "45.988907","lon": "5.372188","city": "Douvres","departement": "Ain", "region": "Rhône-Alpes", "population": 0.9, "adm_weight": 1, "importance": 0.075}
{"id": "01150","type": "village","name": "Drom","postcode": "01250","lat": "46.216925","lon": "5.367783","city": "Drom","departement": "Ain", "region": "Rhône-Alpes", "population": 0.2, "adm_weight": 1, "importance": 0.075}
{"id": "01151","type": "town","name": "Druillat","postcode": "01160","lat": "46.059417","lon": "5.316998","city": "Druillat","departement": "Ain", "region": "Rhône-Alpes", "population": 1.1, "adm_weight": 1, "importance": 0.075}
{"id": "01152","type": "village","name": "Échallon","postcode": "01130","lat": "46.209437","lon": "5.741204","city": "Échallon","departement": "Ain", "region": "Rhône-Alpes", "population": 0.8, "adm_weight": 1, "importance": 0.075}
{"id": "01153","type": "town","name": "Échenevex","postcode": "01170","lat": "46.308312","lon": "6.034817","city": "Échenevex","departement": "Ain", "region": "Rhône-Alpes", "population": 1.6, "adm_weight": 1, "importance": 0.075}
{"id": "01154","type": "village","name": "Étrez","postcode": "01340","lat": "46.334101","lon": "5.184279","city": "Étrez","departement": "Ain", "region": "Rhône-Alpes", "population": 0.8, "adm_weight": 1, "importance": 0.075}
{"id": "01155","type": "village","name": "Évosges","postcode": "01230","lat": "45.960084","lon": "5.497541","city": "Évosges","departement": "Ain", "region": "Rhône-Alpes", "population": 0.1, "adm_weight": 1, "importance": 0.075}
{"id": "01156","type": "village","name": "Faramans","postcode": "01800","lat": "45.901939","lon": "5.124572","city": "Faramans","departement": "Ain", "region": "Rhône-Alpes", "population": 0.7, "adm_weight": 1, "importance": 0.075}
{"id": "01157","type": "town","name": "Fareins","postcode": "01480","lat": "46.018979","lon": "4.760603","city": "Fareins","departement": "Ain", "region": "Rhône-Alpes", "population": 2.1, "adm_weight": 1, "importance": 0.075}
{"id": "01158","type": "village","name": "Farges","postcode": "01550","lat": "46.167520","lon": "5.905110","city": "Farges","departement": "Ain", "region": "Rhône-Alpes", "population": 0.8, "adm_weight": 1, "importance": 0.075}
{"id": "01159","type": "town","name": "Feillens","postcode": "01570","lat": "46.335751","lon": "4.890438","city": "Feillens","departement": "Ain", "region": "Rhône-Alpes", "population": 3.1, "adm_weight": 1, "importance": 0.0807}
{"id": "01160","type": "town","name": "Ferney-Voltaire","postcode": "01210","lat": "46.254993","lon": "6.107209","city": "Ferney-Voltaire","departement": "Ain", "region": "Rhône-Alpes", "population": 8.0, "adm_weight": 2, "importance": 0.3651}
{"id": "01162","type": "village","name": "Flaxieu","postcode": "01350","lat": "45.807747","lon": "5.734140","city": "Flaxieu","departement": "Ain", "region": "Rhône-Alpes", "population": 0.1, "adm_weight": 1, "importance": 0.075}
{"id": "01163","type": "town","name": "Foissiat","postcode": "01340","lat": "46.370330","lon": "5.174015","city": "Foissiat","departement": "Ain", "region": "Rhône-Alpes", "population": 1.9, "adm_weight": 1, "importance": 0.075}
{"id": "01165","type": "town","name": "Francheleins","postcode": "01090","lat": "46.073183","lon": "4.807636","city": "Francheleins","departement": "Ain", "region": "Rhône-Alpes", "population": 1.3, "adm_weight": 1, "importance": 0.075}
{"id": "01166","type": "town","name": "Frans","postcode": "01480","lat": "45.990870","lon": "4.772626","city": "Frans","departement": "Ain", "region": "Rhône-Alpes", "population": 2.0, "adm_weight": 1, "importance": 0.075}
{"id": "01167","type": "village","name": "Garnerans","postcode": "01140","lat": "46.205062","lon": "4.840525","city": "Garnerans","departement": "Ain", "region": "Rhône-Alpes", "population": 0.6, "adm_weight": 1, "importance": 0.075}
{"id": "01169","type": "village","name": "Genouilleux","postcode": "01090","lat": "46.118565","lon": "4.785816","city": "Genouilleux","departement": "Ain", "region": "Rhône-Alpes", "population": 0.6, "adm_weight": 1, "importance": 0.075}
{"id": "01170","type": "village","name": "Béard-Géovreissiat","postcode": "01460","lat": "46.189425","lon": "5.555987","city": "Béard-Géovreissiat","departement": "Ain", "region": "Rhône-Alpes", "population": 0.9, "adm_weight": 1, "importance": 0.075}
{"id": "01171","type": "village","name": "Géovreisset","postcode": "01100","lat": "46.255598","lon": "5.617523","city": "Géovreisset","departement": "Ain", "region": "Rhône-Alpes", "population": 0.9, "adm_weight": 1, "importance": 0.075}
{"id": "01172","type": "village","name": "Germagnat","postcode": "01250","lat": "46.310711","lon": "5.448546","city": "Germagnat","departement": "Ain", "region": "Rhône-Alpes", "population": 0.1, "adm_weight": 1, "importance": 0.075}
{"id": "01173","type": "town","name": "Gex","postcode": "01170","lat": "46.332951","lon": "6.056999","city": "Gex","departement": "Ain", "region": "Rhône-Alpes", "population": 9.9, "adm_weight": 3, "importance": 0.5245}
{"id": "01174","type": "village","name": "Giron","postcode": "01130","lat": "46.224881","lon": "5.773134","city": "Giron","departement": "Ain", "region": "Rhône-Alpes", "population": 0.2, "adm_weight": 1, "importance": 0.075}
{"id": "01175","type": "village","name": "Gorrevod","postcode": "01190","lat": "46.415082","lon": "4.940067","city": "Gorrevod","departement": "Ain", "region": "Rhône-Alpes", "population": 0.8, "adm_weight": 1, "importance": 0.075}
{"id": "01176","type": "village","name": "Le Grand-Abergement","postcode": "01260","lat": "46.033534","lon": "5.674219","city": "Le Grand-Abergement","departement": "Ain", "region": "Rhône-Alpes", "population": 0.1, "adm_weight": 1, "importance": 0.075}
{"id": "01177","type": "village","name": "Grand-Corent","postcode": "01250","lat": "46.198483","lon": "5.430558","city": "Grand-Corent","departement": "Ain", "region": "Rhône-Alpes", "population": 0.2, "adm_weight": 1, "importance": 0.075}
{"id": "01179","type": "town","name": "Grièges","postcode": "01290","lat": "46.254449","lon": "4.849975","city": "Grièges","departement": "Ain", "region": "Rhône-Alpes", "population": 1.9, "adm_weight": 1, "importance": 0.075}
{"id": "01180","type": "village","name": "Grilly","postcode": "01220","lat": "46.330504","lon": "6.114102","city": "Grilly","departement": "Ain", "region": "Rhône-Alpes", "population": 0.7, "adm_weight": 1, "importance": 0.075}
{"id": "01181","type": "town","name": "Groissiat","postcode": "01100","lat": "46.227818","lon": "5.611003","city": "Groissiat","departement": "Ain", "region": "Rhône-Alpes", "population": 1.1, "adm_weight": 1, "importance": 0.075}
{"id": "01182","type": "village","name": "Groslée","postcode": "01680","lat": "45.712587","lon": "5.566098","city": "Groslée","departement": "Ain", "region": "Rhône-Alpes", "population": 0.3, "adm_weight": 1, "importance": 0.075}
{"id": "01183","type": "town","name": "Guéreins","postcode": "01090","lat": "46.107843","lon": "4.780287","city": "Guéreins","departement": "Ain", "region": "Rhône-Alpes", "population": 1.3, "adm_weight": 1, "importance": 0.075}
{"id": "01184","type": "village","name": "Hautecourt-Romanèche","postcode": "01250","lat": "46.159129","lon": "5.417146","city": "Hautecourt-Romanèche","departement": "Ain", "region": "Rhône-Alpes", "population": 0.8, "adm_weight": 1, "importance": 0.075}
{"id": "01185","type": "town","name": "Hauteville-Lompnes","postcode": "01110","lat": "45.978518","lon": "5.599175","city": "Hauteville-Lompnes","departement": "Ain", "region": "Rhône-Alpes", "population": 4.1, "adm_weight": 2, "importance": 0.3494}
{"id": "01186","type": "village","name": "Hostiaz","postcode": "01110","lat": "45.901621","lon": "5.533605","city": "Hostiaz","departement": "Ain", "region": "Rhône-Alpes", "population": 0.1, "adm_weight": 1, "importance": 0.075}
{"id": "01187","type": "village","name": "Hotonnes","postcode": "01260","lat": "45.997046","lon": "5.693129","city": "Hotonnes","departement": "Ain", "region": "Rhône-Alpes", "population": 0.3, "adm_weight": 1, "importance": 0.075}
{"id": "01188","type": "village","name": "Illiat","postcode": "01140","lat": "46.189872","lon": "4.888002","city": "Illiat","departement": "Ain", "region": "Rhône-Alpes", "population": 0.6, "adm_weight": 1, "importance": 0.075}
{"id": "01189","type": "town","name": "Injoux-Génissiat","postcode": "01200","lat": "46.051173","lon": "5.801898","city": "Injoux-Génissiat","departement": "Ain", "region": "Rhône-Alpes", "population": 1.1, "adm_weight": 1, "importance": 0.075}
{"id": "01190","type": "village","name": "Innimond","postcode": "01680","lat": "45.782729","lon": "5.571933","city": "Innimond","departement": "Ain", "region": "Rhône-Alpes", "population": 0.1, "adm_weight": 1, "importance": 0.075}
{"id": "01191","type": "village","name": "Izenave","postcode": "01430","lat": "46.037872","lon": "5.524361","city": "Izenave","departement": "Ain", "region": "Rhône-Alpes", "population": 0.2, "adm_weight": 1, "importance": 0.075}
{"id": "01192","type": "town","name": "Izernore","postcode": "01580","lat": "46.220113","lon": "5.553524","city": "Izernore","departement": "Ain", "region": "Rhône-Alpes", "population": 2.3, "adm_weight": 2, "importance": 0.3370}
{"id": "01193","type": "village","name": "Izieu","postcode": "01300","lat": "45.654046","lon": "5.643038","city": "Izieu","departement": "Ain", "region": "Rhône-Alpes", "population": 0.2, "adm_weight": 1, "importance": 0.075}
{"id": "01194","type": "town","name": "Jassans-Riottier","postcode": "01480","lat": "45.984829","lon": "4.755635","city": "Jassans-Riottier","departement": "Ain", "region": "Rhône-Alpes", "population": 6.0, "adm_weight": 1, "importance": 0.1078}
{"id": "01195","type": "town","name": "Jasseron","postcode": "01250","lat": "46.212434","lon": "5.323468","city": "Jasseron","departement": "Ain", "region": "Rhône-Alpes", "population": 1.5, "adm_weight": 1, "importance": 0.075}
{"id": "01196","type": "town","name": "Jayat","postcode": "01340","lat": "46.370433","lon": "5.120664","city": "Jayat","departement": "Ain", "region": "Rhône-Alpes", "population": 1.0, "adm_weight": 1, "importance": 0.075}
{"id": "01197","type": "village","name": "Journans","postcode": "01250","lat": "46.143788","lon": "5.332225","city": "Journans","departement": "Ain", "region": "Rhône-Alpes", "population": 0.3, "adm_weight": 1, "importance": 0.075}
{"id": "01198","type": "village","name": "Joyeux","postcode": "01800","lat": "45.960980","lon": "5.098434","city": "Joyeux","departement": "Ain", "region": "Rhône-Alpes", "population": 0.2, "adm_weight": 1, "importance": 0.075}
{"id": "01199","type": "town","name": "Jujurieux","postcode": "01640","lat": "46.039503","lon": "5.408005","city": "Jujurieux","departement": "Ain", "region": "Rhône-Alpes", "population": 2.0, "adm_weight": 1, "importance": 0.075}
{"id": "01200","type": "village","name": "Labalme","postcode": "01450","lat": "46.092845","lon": "5.482859","city": "Labalme","departement": "Ain", "region": "Rhône-Alpes", "population": 0.2, "adm_weight": 1, "importance": 0.075}
{"id": "01202","type": "town","name": "Lagnieu","postcode": "01150","lat": "45.902902","lon": "5.349130","city": "Lagnieu","departement": "Ain", "region": "Rhône-Alpes", "population": 6.7, "adm_weight": 2, "importance": 0.3609}
{"id": "01203","type": "town","name": "Laiz","postcode": "01290","lat": "46.247508","lon": "4.888690","city": "Laiz","departement": "Ain", "region": "Rhône-Alpes", "population": 1.1, "adm_weight": 1, "importance": 0.075}
{"id": "01204","type": "village","name": "Lalleyriat","postcode": "01130","lat": "46.154231","lon": "5.713811","city": "Lalleyriat","departement": "Ain", "region": "Rhône-Alpes", "population": 0.2, "adm_weight": 1, "importance": 0.075}
{"id": "01205","type": "town","name": "Lancrans","postcode": "01200","lat": "46.124292","lon": "5.832843","city": "Lancrans","departement": "Ain", "region": "Rhône-Alpes", "population": 1.0, "adm_weight": 1, "importance": 0.075}
{"id": "01206","type": "village","name": "Lantenay","postcode": "01430","lat": "46.057326","lon": "5.540784","city": "Lantenay","departement": "Ain", "region": "Rhône-Alpes", "population": 0.3, "adm_weight": 1, "importance": 0.075}
{"id": "01207","type": "village","name": "Lapeyrouse","postcode": "01330","lat": "45.982991","lon": "4.976520","city": "Lapeyrouse","departement": "Ain", "region": "Rhône-Alpes", "population": 0.3, "adm_weight": 1, "importance": 0.075}
{"id": "01208","type": "village","name": "Lavours","postcode": "01350","lat": "45.808637","lon": "5.771548","city": "Lavours","departement": "Ain", "region": "Rhône-Alpes", "population": 0.1, "adm_weight": 1, "importance": 0.075}
{"id": "01209","type": "village","name": "Léaz","postcode": "01200","lat": "46.097726","lon": "5.885873","city": "Léaz","departement": "Ain", "region": "Rhône-Alpes", "population": 0.5, "adm_weight": 1, "importance": 0.075}
{"id": "01210","type": "village","name": "Lélex","postcode": "01410","lat": "46.302667","lon": "5.940890","city": "Lélex","departement": "Ain", "region": "Rhône-Alpes", "population": 0.2, "adm_weight": 1, "importance": 0.075}
{"id": "01211","type": "town","name": "Lent","postcode": "01240","lat": "46.118594","lon": "5.195135","city": "Lent","departement": "Ain", "region": "Rhône-Alpes", "population": 1.3, "adm_weight": 1, "importance": 0.075}
{"id": "01212","type": "village","name": "Lescheroux","postcode": "01560","lat": "46.406001","lon": "5.145484","city": "Lescheroux","departement": "Ain", "region": "Rhône-Alpes", "population": 0.7, "adm_weight": 1, "importance": 0.075}
{"id": "01213","type": "town","name": "Leyment","postcode": "01150","lat": "45.922942","lon": "5.294477","city": "Leyment","departement": "Ain", "region": "Rhône-Alpes", "population": 1.3, "adm_weight": 1, "importance": 0.075}
{"id": "01214","type": "village","name": "Leyssard","postcode": "01450","lat": "46.155174","lon": "5.475309","city": "Leyssard","departement": "Ain", "region": "Rhône-Alpes", "population": 0.2, "adm_weight": 1, "importance": 0.075}
{"id": "01215","type": "village","name": "Lhôpital","postcode": "01420","lat": "46.021117","lon": "5.778378","city": "Lhôpital","departement": "Ain", "region": "Rhône-Alpes", "population": 0.1, "adm_weight": 1, "importance": 0.075}
{"id": "01216","type": "village","name": "Lhuis","postcode": "01680","lat": "45.745772","lon": "5.532894","city": "Lhuis","departement": "Ain", "region": "Rhône-Alpes", "population": 0.8, "adm_weight": 2, "importance": 0.3191}
{"id": "01218","type": "village","name": "Lochieu","postcode": "01260","lat": "45.930452","lon": "5.727319","city": "Lochieu","departement": "Ain", "region": "Rhône-Alpes", "population": 0.1, "adm_weight": 1, "importance": 0.075}
{"id": "01219","type": "village","name": "Lompnas","postcode": "01680","lat": "45.802820","lon": "5.520054","city": "Lompnas","departement": "Ain", "region": "Rhône-Alpes", "population": 0.1, "adm_weight": 1, "importance": 0.075}
{"id": "01221","type": "village","name": "Lompnieu","postcode": "01260","lat": "45.960879","lon": "5.660354","city": "Lompnieu","departement": "Ain", "region": "Rhône-Alpes", "population": 0.1, "adm_weight": 1, "importance": 0.075}
{"id": "01224","type": "town","name": "Loyettes","postcode": "01360","lat": "45.773439","lon": "5.202017","city": "Loyettes","departement": "Ain", "region": "Rhône-Alpes", "population": 2.5, "adm_weight": 1, "importance": 0.075}
{"id": "01225","type": "village","name": "Lurcy","postcode": "01090","lat": "46.061910","lon": "4.780093","city": "Lurcy","departement": "Ain", "region": "Rhône-Alpes", "population": 0.4, "adm_weight": 1, "importance": 0.075}
{"id": "01227","type": "village","name": "Magnieu","postcode": "01300","lat": "45.774791","lon": "5.718345","city": "Magnieu","departement": "Ain", "region": "Rhône-Alpes", "population": 0.4, "adm_weight": 1, "importance": 0.075}
{"id": "01228","type": "village","name": "Maillat","postcode": "01430","lat": "46.128573","lon": "5.537603","city": "Maillat","departement": "Ain", "region": "Rhône-Alpes", "population": 0.7, "adm_weight": 1, "importance": 0.075}
{"id": "01229","type": "village","name": "Malafretaz","postcode": "01340","lat": "46.324015","lon": "5.146169","city": "Malafretaz","departement": "Ain", "region": "Rhône-Alpes", "population": 0.9, "adm_weight": 1, "importance": 0.075}
{"id": "01230","type": "village","name": "Mantenay-Montlin","postcode": "01560","lat": "46.423999","lon": "5.097995","city": "Mantenay-Montlin","departement": "Ain", "region": "Rhône-Alpes", "population": 0.3, "adm_weight": 1, "importance": 0.075}
{"id": "01231","type": "town","name": "Manziat","postcode": "01570","lat": "46.358896","lon": "4.906850","city": "Manziat","departement": "Ain", "region": "Rhône-Alpes", "population": 1.9, "adm_weight": 1, "importance": 0.075}
{"id": "01232","type": "town","name": "Marboz","postcode": "01851","lat": "46.342584","lon": "5.257458","city": "Marboz","departement": "Ain", "region": "Rhône-Alpes", "population": 2.2, "adm_weight": 1, "importance": 0.075}
{"id": "01233","type": "village","name": "Marchamp","postcode": "01680","lat": "45.777883","lon": "5.547243","city": "Marchamp","departement": "Ain", "region": "Rhône-Alpes", "population": 0.1, "adm_weight": 1, "importance": 0.075}
{"id": "01234","type": "village","name": "Marignieu","postcode": "01300","lat": "45.796359","lon": "5.720695","city": "Marignieu","departement": "Ain", "region": "Rhône-Alpes", "population": 0.2, "adm_weight": 1, "importance": 0.075}
{"id": "01235","type": "village","name": "Marlieux","postcode": "01240","lat": "46.064147","lon": "5.072610","city": "Marlieux","departement": "Ain", "region": "Rhône-Alpes", "population": 0.8, "adm_weight": 1, "importance": 0.075}
{"id": "01236","type": "town","name": "Marsonnas","postcode": "01340","lat": "46.340736","lon": "5.070088","city": "Marsonnas","departement": "Ain", "region": "Rhône-Alpes", "population": 1.0, "adm_weight": 1, "importance": 0.075}
{"id": "01237","type": "town","name": "Martignat","postcode": "01100","lat": "46.208948","lon": "5.608806","city": "Martignat","departement": "Ain", "region": "Rhône-Alpes", "population": 1.6, "adm_weight": 1, "importance": 0.075}
{"id": "01238","type": "town","name": "Massieux","postcode": "01600","lat": "45.908002","lon": "4.829314","city": "Massieux","departement": "Ain", "region": "Rhône-Alpes", "population": 2.4, "adm_weight": 1, "importance": 0.075}
{"id": "01239","type": "village","name": "Massignieu-de-Rives","postcode": "01300","lat": "45.753804","lon": "5.766224","city": "Massignieu-de-Rives","departement": "Ain", "region": "Rhône-Alpes", "population": 0.6, "adm_weight": 1, "importance": 0.075}
{"id": "01240","type": "village","name": "Matafelon-Granges","postcode": "01580","lat": "46.260672","lon": "5.552818","city": "Matafelon-Granges","departement": "Ain", "region": "Rhône-Alpes", "population": 0.7, "adm_weight": 1, "importance": 0.075}
{"id": "01241","type": "town","name": "Meillonnas","postcode": "01370","lat": "46.244304","lon": "5.350788","city": "Meillonnas","departement": "Ain", "region": "Rhône-Alpes", "population": 1.3, "adm_weight": 1, "importance": 0.075}
{"id": "01242","type": "village","name": "Mérignat","postcode": "01450","lat": "46.068625","lon": "5.436463","city": "Mérignat","departement": "Ain", "region": "Rhône-Alpes", "population": 0.1, "adm_weight": 1, "importance": 0.075}
{"id": "01243","type": "town","name": "Messimy-sur-Saône","postcode": "01480","lat": "46.047748","lon": "4.764112","city": "Messimy-sur-Saône","departement": "Ain", "region": "Rhône-Alpes", "population": 1.2, "adm_weight": 1, "importance": 0.075}
{"id": "01244","type": "town","name": "Meximieux","postcode": "01800","lat": "45.904210","lon": "5.194338","city": "Meximieux","departement": "Ain", "region": "Rhône-Alpes", "population": 7.3, "adm_weight": 2, "importance": 0.3629}
{"id": "01245","type": "village","name": "Bohas-Meyriat-Rignat","postcode": "01250","lat": "46.136276","lon": "5.390221","city": "Bohas-Meyriat-Rignat","departement": "Ain", "region": "Rhône-Alpes", "population": 0.8, "adm_weight": 1, "importance": 0.075}
{"id": "01246","type": "town","name": "Mézériat","postcode": "01660","lat": "46.233968","lon": "5.046583","city": "Mézériat","departement": "Ain", "region": "Rhône-Alpes", "population": 2.1, "adm_weight": 1, "importance": 0.075}
{"id": "01247","type": "village","name": "Mijoux","postcode": "01410","lat": "46.365235","lon": "5.995023","city": "Mijoux","departement": "Ain", "region": "Rhône-Alpes", "population": 0.4, "adm_weight": 1, "importance": 0.075}
{"id": "01248","type": "town","name": "Mionnay","postcode": "01390","lat": "45.894627","lon": "4.929490","city": "Mionnay","departement": "Ain", "region": "Rhône-Alpes", "population": 2.1, "adm_weight": 1, "importance": 0.075}
{"id": "01249","type": "town","name": "Miribel","postcode": "01700","lat": "45.823967","lon": "4.952788","city": "Miribel","departement": "Ain", "region": "Rhône-Alpes", "population": 9.0, "adm_weight": 2, "importance": 0.3680}
{"id": "01250","type": "town","name": "Misérieux","postcode": "01600","lat": "45.973172","lon": "4.809519","city": "Misérieux","departement": "Ain", "region": "Rhône-Alpes", "population": 1.7, "adm_weight": 1, "importance": 0.075}
{"id": "01252","type": "village","name": "Mogneneins","postcode": "01140","lat": "46.137981","lon": "4.811066","city": "Mogneneins","departement": "Ain", "region": "Rhône-Alpes", "population": 0.7, "adm_weight": 1, "importance": 0.075}
{"id": "01254","type": "town","name": "Montagnat","postcode": "01250","lat": "46.170891","lon": "5.284104","city": "Montagnat","departement": "Ain", "region": "Rhône-Alpes", "population": 1.6, "adm_weight": 1, "importance": 0.075}
{"id": "01255","type": "village","name": "Montagnieu","postcode": "01470","lat": "45.793185","lon": "5.466810","city": "Montagnieu","departement": "Ain", "region": "Rhône-Alpes", "population": 0.5, "adm_weight": 1, "importance": 0.075}
{"id": "01257","type": "village","name": "Montanges","postcode": "01200","lat": "46.163823","lon": "5.801169","city": "Montanges","departement": "Ain", "region": "Rhône-Alpes", "population": 0.3, "adm_weight": 1, "importance": 0.075}
{"id": "01258","type": "town","name": "Montceaux","postcode": "01090","lat": "46.096775","lon": "4.796760","city": "Montceaux","departement": "Ain", "region": "Rhône-Alpes", "population": 1.1, "adm_weight": 1, "importance": 0.075}
{"id": "01259","type": "village","name": "Montcet","postcode": "01310","lat": "46.212055","lon": "5.111940","city": "Montcet","departement": "Ain", "region": "Rhône-Alpes", "population": 0.7, "adm_weight": 1, "importance": 0.075}
{"id": "01260","type": "village","name": "Le Montellier","postcode": "01800","lat": "45.929925","lon": "5.072723","city": "Le Montellier","departement": "Ain", "region": "Rhône-Alpes", "population": 0.2, "adm_weight": 1, "importance": 0.075}
{"id": "01261","type": "village","name": "Monthieux","postcode": "01390","lat": "45.956610","lon": "4.939411","city": "Monthieux","departement": "Ain", "region": "Rhône-Alpes", "population": 0.6, "adm_weight": 1, "importance": 0.075}
{"id": "01262","type": "town","name": "Montluel","postcode": "01120","lat": "45.850968","lon": "5.055577","city": "Montluel","departement": "Ain", "region": "Rhône-Alpes", "population": 6.9, "adm_weight": 2, "importance": 0.3616}
{"id": "01263","type": "town","name": "Montmerle-sur-Saône","postcode": "01090","lat": "46.081178","lon": "4.757419","city": "Montmerle-sur-Saône","departement": "Ain", "region": "Rhône-Alpes", "population": 3.8, "adm_weight": 1, "importance": 0.0889}
{"id": "01264","type": "town","name": "Montracol","postcode": "01310","lat": "46.196559","lon": "5.121721","city": "Montracol","departement": "Ain", "region": "Rhône-Alpes", "population": 1.0, "adm_weight": 1, "importance": 0.075}
{"id": "01265","type": "town","name": "Montréal-la-Cluse","postcode": "01460","lat": "46.186404","lon": "5.570115","city": "Montréal-la-Cluse","departement": "Ain", "region": "Rhône-Alpes", "population": 3.5, "adm_weight": 1, "importance": 0.0856}
{"id": "01266","type": "town","name": "Montrevel-en-Bresse","postcode": "01340","lat": "46.336083","lon": "5.127134","city": "Montrevel-en-Bresse","departement": "Ain", "region": "Rhône-Alpes", "population": 2.4, "adm_weight": 2, "importance": 0.3379}
{"id": "01267","type": "town","name": "Nurieux-Volognat","postcode": "01460","lat": "46.184692","lon": "5.525932","city": "Nurieux-Volognat","departement": "Ain", "region": "Rhône-Alpes", "population": 1.1, "adm_weight": 1, "importance": 0.075}
{"id": "01268","type": "village","name": "Murs-et-Gélignieux","postcode": "01300","lat": "45.640992","lon": "5.661682","city": "Murs-et-Gélignieux","departement": "Ain", "region": "Rhône-Alpes", "population": 0.2, "adm_weight": 1, "importance": 0.075}
{"id": "01269","type": "town","name": "Nantua","postcode": "01130","lat": "46.153178","lon": "5.604858","city": "Nantua","departement": "Ain", "region": "Rhône-Alpes", "population": 3.6, "adm_weight": 3, "importance": 0.5080}
{"id": "01271","type": "village","name": "Nattages","postcode": "01300","lat": "45.727895","lon": "5.757208","city": "Nattages","departement": "Ain", "region": "Rhône-Alpes", "population": 0.6, "adm_weight": 1, "importance": 0.075}
{"id": "01272","type": "town","name": "Neuville-les-Dames","postcode": "01400","lat": "46.161792","lon": "5.002407","city": "Neuville-les-Dames","departement": "Ain", "region": "Rhône-Alpes", "population": 1.5, "adm_weight": 1, "importance": 0.075}
{"id": "01273","type": "town","name": "Neuville-sur-Ain","postcode": "01160","lat": "46.081724","lon": "5.371018","city": "Neuville-sur-Ain","departement": "Ain", "region": "Rhône-Alpes", "population": 1.5, "adm_weight": 1, "importance": 0.075}
{"id": "01274","type": "village","name": "Les Neyrolles","postcode": "01130","lat": "46.140821","lon": "5.632786","city": "Les Neyrolles","departement": "Ain", "region": "Rhône-Alpes", "population": 0.7, "adm_weight": 1, "importance": 0.075}
{"id": "01275","type": "town","name": "Neyron","postcode": "01700","lat": "45.814419","lon": "4.931840","city": "Neyron","departement": "Ain", "region": "Rhône-Alpes", "population": 2.5, "adm_weight": 1, "importance": 0.075}
{"id": "01276","type": "town","name": "Niévroz","postcode": "01120","lat": "45.825598","lon": "5.063652","city": "Niévroz","departement": "Ain", "region": "Rhône-Alpes", "population": 1.5, "adm_weight": 1, "importance": 0.075}
{"id": "01277","type": "village","name": "Nivollet-Montgriffon","postcode": "01230","lat": "45.992741","lon": "5.446028","city": "Nivollet-Montgriffon","departement": "Ain", "region": "Rhône-Alpes", "population": 0.1, "adm_weight": 1, "importance": 0.075}
{"id": "01279","type": "village","name": "Oncieu","postcode": "01230","lat": "45.958822","lon": "5.472940","city": "Oncieu","departement": "Ain", "region": "Rhône-Alpes", "population": 0.1, "adm_weight": 1, "importance": 0.075}
{"id": "01280","type": "village","name": "Ordonnaz","postcode": "01510","lat": "45.836675","lon": "5.537067","city": "Ordonnaz","departement": "Ain", "region": "Rhône-Alpes", "population": 0.1, "adm_weight": 1, "importance": 0.075}
{"id": "01281","type": "town","name": "Ornex","postcode": "01210","lat": "46.275213","lon": "6.092762","city": "Ornex","departement": "Ain", "region": "Rhône-Alpes", "population": 3.3, "adm_weight": 1, "importance": 0.0832}
{"id": "01282","type": "village","name": "Outriaz","postcode": "01430","lat": "46.067110","lon": "5.546414","city": "Outriaz","departement": "Ain", "region": "Rhône-Alpes", "population": 0.3, "adm_weight": 1, "importance": 0.075}
{"id": "01283","type": "city","name": "Oyonnax","postcode": "01100","lat": "46.255657","lon": "5.653894","city": "Oyonnax","departement": "Ain", "region": "Rhône-Alpes", "population": 22.9, "adm_weight": 2, "importance": 0.3908}
{"id": "01284","type": "village","name": "Ozan","postcode": "01190","lat": "46.391195","lon": "4.914486","city": "Ozan","departement": "Ain", "region": "Rhône-Alpes", "population": 0.6, "adm_weight": 1, "importance": 0.075}
{"id": "01285","type": "town","name": "Parcieux","postcode": "01600","lat": "45.915287","lon": "4.824394","city": "Parcieux","departement": "Ain", "region": "Rhône-Alpes", "population": 1.1, "adm_weight": 1, "importance": 0.075}
{"id": "01286","type": "village","name": "Parves","postcode": "01300","lat": "45.743632","lon": "5.739976","city": "Parves","departement": "Ain", "region": "Rhône-Alpes", "population": 0.4, "adm_weight": 1, "importance": 0.075}
{"id": "01288","type": "town","name": "Péron","postcode": "01630","lat": "46.189518","lon": "5.925737","city": "Péron","departement": "Ain", "region": "Rhône-Alpes", "population": 2.0, "adm_weight": 1, "importance": 0.075}
{"id": "01289","type": "town","name": "Péronnas","postcode": "01960","lat": "46.177928","lon": "5.201400","city": "Péronnas","departement": "Ain", "region": "Rhône-Alpes", "population": 6.1, "adm_weight": 2, "importance": 0.3586}
{"id": "01290","type": "town","name": "Pérouges","postcode": "01800","lat": "45.902709","lon": "5.178794","city": "Pérouges","departement": "Ain", "region": "Rhône-Alpes", "population": 1.2, "adm_weight": 1, "importance": 0.075}
{"id": "01291","type": "village","name": "Perrex","postcode": "01540","lat": "46.245109","lon": "4.976890","city": "Perrex","departement": "Ain", "region": "Rhône-Alpes", "population": 0.8, "adm_weight": 1, "importance": 0.075}
{"id": "01292","type": "village","name": "Le Petit-Abergement","postcode": "01260","lat": "46.032008","lon": "5.662502","city": "Le Petit-Abergement","departement": "Ain", "region": "Rhône-Alpes", "population": 0.1, "adm_weight": 1, "importance": 0.075}
{"id": "01293","type": "village","name": "Peyriat","postcode": "01430","lat": "46.153507","lon": "5.510236","city": "Peyriat","departement": "Ain", "region": "Rhône-Alpes", "population": 0.2, "adm_weight": 1, "importance": 0.075}
{"id": "01294","type": "village","name": "Peyrieu","postcode": "01300","lat": "45.676687","lon": "5.676252","city": "Peyrieu","departement": "Ain", "region": "Rhône-Alpes", "population": 0.8, "adm_weight": 1, "importance": 0.075}
{"id": "01295","type": "village","name": "Peyzieux-sur-Saône","postcode": "01140","lat": "46.127116","lon": "4.814593","city": "Peyzieux-sur-Saône","departement": "Ain", "region": "Rhône-Alpes", "population": 0.4, "adm_weight": 1, "importance": 0.075}
{"id": "01296","type": "village","name": "Pirajoux","postcode": "01270","lat": "46.370582","lon": "5.298958","city": "Pirajoux","departement": "Ain", "region": "Rhône-Alpes", "population": 0.3, "adm_weight": 1, "importance": 0.075}
{"id": "01297","type": "village","name": "Pizay","postcode": "01120","lat": "45.888185","lon": "5.089213","city": "Pizay","departement": "Ain", "region": "Rhône-Alpes", "population": 0.8, "adm_weight": 1, "importance": 0.075}
{"id": "01298","type": "village","name": "Plagne","postcode": "01130","lat": "46.191749","lon": "5.727345","city": "Plagne","departement": "Ain", "region": "Rhône-Alpes", "population": 0.1, "adm_weight": 1, "importance": 0.075}
{"id": "01299","type": "village","name": "Le Plantay","postcode": "01330","lat": "46.022430","lon": "5.087848","city": "Le Plantay","departement": "Ain", "region": "Rhône-Alpes", "population": 0.5, "adm_weight": 1, "importance": 0.075}
{"id": "01300","type": "village","name": "Le Poizat","postcode": "01130","lat": "46.143863","lon": "5.695151","city": "Le Poizat","departement": "Ain", "region": "Rhône-Alpes", "population": 0.4, "adm_weight": 1, "importance": 0.075}
{"id": "01301","type": "town","name": "Polliat","postcode": "01310","lat": "46.248744","lon": "5.125041","city": "Polliat","departement": "Ain", "region": "Rhône-Alpes", "population": 2.4, "adm_weight": 1, "importance": 0.075}
{"id": "01302","type": "village","name": "Pollieu","postcode": "01350","lat": "45.799460","lon": "5.741459","city": "Pollieu","departement": "Ain", "region": "Rhône-Alpes", "population": 0.2, "adm_weight": 1, "importance": 0.075}
{"id": "01303","type": "town","name": "Poncin","postcode": "01450","lat": "46.084589","lon": "5.406098","city": "Poncin","departement": "Ain", "region": "Rhône-Alpes", "population": 1.6, "adm_weight": 2, "importance": 0.3301}
{"id": "01304","type": "town","name": "Pont-d'Ain","postcode": "01160","lat": "46.048218","lon": "5.335933","city": "Pont-d'Ain","departement": "Ain", "region": "Rhône-Alpes", "population": 2.6, "adm_weight": 2, "importance": 0.3395}
{"id": "01305","type": "town","name": "Pont-de-Vaux","postcode": "01190","lat": "46.431352","lon": "4.936738","city": "Pont-de-Vaux","departement": "Ain", "region": "Rhône-Alpes", "population": 2.2, "adm_weight": 2, "importance": 0.3361}
{"id": "01306","type": "town","name": "Pont-de-Veyle","postcode": "01290","lat": "46.262854","lon": "4.886622","city": "Pont-de-Veyle","departement": "Ain", "region": "Rhône-Alpes", "population": 1.5, "adm_weight": 2, "importance": 0.3289}
{"id": "01307","type": "village","name": "Port","postcode": "01460","lat": "46.163904","lon": "5.569060","city": "Port","departement": "Ain", "region": "Rhône-Alpes", "population": 0.9, "adm_weight": 1, "importance": 0.075}
{"id": "01308","type": "village","name": "Pougny","postcode": "01550","lat": "46.139356","lon": "5.948988","city": "Pougny","departement": "Ain", "region": "Rhône-Alpes", "population": 0.8, "adm_weight": 1, "importance": 0.075}
{"id": "01309","type": "village","name": "Pouillat","postcode": "01250","lat": "46.326485","lon": "5.427144","city": "Pouillat","departement": "Ain", "region": "Rhône-Alpes", "population": 0.1, "adm_weight": 1, "importance": 0.075}
{"id": "01310","type": "village","name": "Prémeyzel","postcode": "01300","lat": "45.683685","lon": "5.647025","city": "Prémeyzel","departement": "Ain", "region": "Rhône-Alpes", "population": 0.2, "adm_weight": 1, "importance": 0.075}
{"id": "01311","type": "village","name": "Prémillieu","postcode": "01110","lat": "45.873748","lon": "5.571019","city": "Prémillieu","departement": "Ain", "region": "Rhône-Alpes", "population": 0.0, "adm_weight": 1, "importance": 0.075}
{"id": "01312","type": "village","name": "Pressiat","postcode": "01370","lat": "46.322862","lon": "5.385373","city": "Pressiat","departement": "Ain", "region": "Rhône-Alpes", "population": 0.2, "adm_weight": 1, "importance": 0.075}
{"id": "01313","type": "town","name": "Prévessin-Moëns","postcode": "01280","lat": "46.254799","lon": "6.081216","city": "Prévessin-Moëns","departement": "Ain", "region": "Rhône-Alpes", "population": 5.6, "adm_weight": 1, "importance": 0.1049}
{"id": "01314","type": "town","name": "Priay","postcode": "01160","lat": "46.003235","lon": "5.288777","city": "Priay","departement": "Ain", "region": "Rhône-Alpes", "population": 1.5, "adm_weight": 1, "importance": 0.075}
{"id": "01316","type": "village","name": "Pugieu","postcode": "01510","lat": "45.820603","lon": "5.648437","city": "Pugieu","departement": "Ain", "region": "Rhône-Alpes", "population": 0.2, "adm_weight": 1, "importance": 0.075}
{"id": "01317","type": "village","name": "Ramasse","postcode": "01250","lat": "46.194665","lon": "5.355146","city": "Ramasse","departement": "Ain", "region": "Rhône-Alpes", "population": 0.3, "adm_weight": 1, "importance": 0.075}
{"id": "01318","type": "village","name": "Rancé","postcode": "01390","lat": "45.965006","lon": "4.868666","city": "Rancé","departement": "Ain", "region": "Rhône-Alpes", "population": 0.6, "adm_weight": 1, "importance": 0.075}
{"id": "01319","type": "village","name": "Relevant","postcode": "01990","lat": "46.089754","lon": "4.949291","city": "Relevant","departement": "Ain", "region": "Rhône-Alpes", "population": 0.4, "adm_weight": 1, "importance": 0.075}
{"id": "01320","type": "town","name": "Replonges","postcode": "01750","lat": "46.309709","lon": "4.885638","city": "Replonges","departement": "Ain", "region": "Rhône-Alpes", "population": 3.4, "adm_weight": 1, "importance": 0.0844}
{"id": "01321","type": "village","name": "Revonnas","postcode": "01250","lat": "46.161869","lon": "5.329105","city": "Revonnas","departement": "Ain", "region": "Rhône-Alpes", "population": 0.7, "adm_weight": 1, "importance": 0.075}
{"id": "01322","type": "town","name": "Reyrieux","postcode": "01600","lat": "45.934234","lon": "4.822440","city": "Reyrieux","departement": "Ain", "region": "Rhône-Alpes", "population": 4.0, "adm_weight": 2, "importance": 0.3489}
{"id": "01323","type": "village","name": "Reyssouze","postcode": "01190","lat": "46.431660","lon": "4.918510","city": "Reyssouze","departement": "Ain", "region": "Rhône-Alpes", "population": 0.9, "adm_weight": 1, "importance": 0.075}
{"id": "01325","type": "village","name": "Rignieux-le-Franc","postcode": "01800","lat": "45.939441","lon": "5.189286","city": "Rignieux-le-Franc","departement": "Ain", "region": "Rhône-Alpes", "population": 0.9, "adm_weight": 1, "importance": 0.075}
{"id": "01328","type": "village","name": "Romans","postcode": "01400","lat": "46.118215","lon": "5.021543","city": "Romans","departement": "Ain", "region": "Rhône-Alpes", "population": 0.6, "adm_weight": 1, "importance": 0.075}
{"id": "01329","type": "village","name": "Rossillon","postcode": "01510","lat": "45.831788","lon": "5.593552","city": "Rossillon","departement": "Ain", "region": "Rhône-Alpes", "population": 0.1, "adm_weight": 1, "importance": 0.075}
{"id": "01330","type": "village","name": "Ruffieu","postcode": "01260","lat": "45.993248","lon": "5.663211","city": "Ruffieu","departement": "Ain", "region": "Rhône-Alpes", "population": 0.2, "adm_weight": 1, "importance": 0.075}
{"id": "01331","type": "village","name": "Saint-Alban","postcode": "01450","lat": "46.095292","lon": "5.453185","city": "Saint-Alban","departement": "Ain", "region": "Rhône-Alpes", "population": 0.2, "adm_weight": 1, "importance": 0.075}
{"id": "01332","type": "village","name": "Saint-André-de-Bâgé","postcode": "01380","lat": "46.293885","lon": "4.916279","city": "Saint-André-de-Bâgé","departement": "Ain", "region": "Rhône-Alpes", "population": 0.6, "adm_weight": 1, "importance": 0.075}
{"id": "01333","type": "town","name": "Saint-André-de-Corcy","postcode": "01390","lat": "45.925781","lon": "4.951234","city": "Saint-André-de-Corcy","departement": "Ain", "region": "Rhône-Alpes", "population": 3.0, "adm_weight": 1, "importance": 0.0794}
{"id": "01334","type": "village","name": "Saint-André-d'Huiriat","postcode": "01290","lat": "46.212909","lon": "4.910853","city": "Saint-André-d'Huiriat","departement": "Ain", "region": "Rhône-Alpes", "population": 0.5, "adm_weight": 1, "importance": 0.075}
{"id": "01335","type": "village","name": "Saint-André-le-Bouchoux","postcode": "01240","lat": "46.117187","lon": "5.078498","city": "Saint-André-le-Bouchoux","departement": "Ain", "region": "Rhône-Alpes", "population": 0.3, "adm_weight": 1, "importance": 0.075}
{"id": "01336","type": "town","name": "Saint-André-sur-Vieux-Jonc","postcode": "01960","lat": "46.156466","lon": "5.146095","city": "Saint-André-sur-Vieux-Jonc","departement": "Ain", "region": "Rhône-Alpes", "population": 1.1, "adm_weight": 1, "importance": 0.075}
{"id": "01337","type": "town","name": "Saint-Bénigne","postcode": "01190","lat": "46.444455","lon": "4.960657","city": "Saint-Bénigne","departement": "Ain", "region": "Rhône-Alpes", "population": 1.1, "adm_weight": 1, "importance": 0.075}
{"id": "01338","type": "village","name": "Saint-Benoît","postcode": "01300","lat": "45.694058","lon": "5.588380","city": "Saint-Benoît","departement": "Ain", "region": "Rhône-Alpes", "population": 0.8, "adm_weight": 1, "importance": 0.075}
{"id": "01339","type": "town","name": "Saint-Bernard","postcode": "01600","lat": "45.944596","lon": "4.736276","city": "Saint-Bernard","departement": "Ain", "region": "Rhône-Alpes", "population": 1.4, "adm_weight": 1, "importance": 0.075}
{"id": "01340","type": "village","name": "Saint-Bois","postcode": "01300","lat": "45.700965","lon": "5.640137","city": "Saint-Bois","departement": "Ain", "region": "Rhône-Alpes", "population": 0.1, "adm_weight": 1, "importance": 0.075}
{"id": "01341","type": "village","name": "Saint-Champ","postcode": "01300","lat": "45.783511","lon": "5.730365","city": "Saint-Champ","departement": "Ain", "region": "Rhône-Alpes", "population": 0.1, "adm_weight": 1, "importance": 0.075}
{"id": "01342","type": "village","name": "Sainte-Croix","postcode": "01120","lat": "45.893371","lon": "5.051998","city": "Sainte-Croix","departement": "Ain", "region": "Rhône-Alpes", "population": 0.5, "adm_weight": 1, "importance": 0.075}
{"id": "01343","type": "town","name": "Saint-Cyr-sur-Menthon","postcode": "01380","lat": "46.274905","lon": "4.972770","city": "Saint-Cyr-sur-Menthon","departement": "Ain", "region": "Rhône-Alpes", "population": 1.6, "adm_weight": 1, "importance": 0.075}
{"id": "01344","type": "town","name": "Saint-Denis-lès-Bourg","postcode": "01000","lat": "46.198832","lon": "5.191861","city": "Saint-Denis-lès-Bourg","departement": "Ain", "region": "Rhône-Alpes", "population": 5.4, "adm_weight": 1, "importance": 0.1034}
{"id": "01345","type": "town","name": "Saint-Denis-en-Bugey","postcode": "01500","lat": "45.951087","lon": "5.327938","city": "Saint-Denis-en-Bugey","departement": "Ain", "region": "Rhône-Alpes", "population": 2.1, "adm_weight": 1, "importance": 0.075}
{"id": "01346","type": "village","name": "Saint-Didier-d'Aussiat","postcode": "01340","lat": "46.305795","lon": "5.059668","city": "Saint-Didier-d'Aussiat","departement": "Ain", "region": "Rhône-Alpes", "population": 0.8, "adm_weight": 1, "importance": 0.075}
{"id": "01347","type": "town","name": "Saint-Didier-de-Formans","postcode": "01600","lat": "45.955638","lon": "4.779240","city": "Saint-Didier-de-Formans","departement": "Ain", "region": "Rhône-Alpes", "population": 1.8, "adm_weight": 1, "importance": 0.075}
{"id": "01348","type": "town","name": "Saint-Didier-sur-Chalaronne","postcode": "01140","lat": "46.177509","lon": "4.817557","city": "Saint-Didier-sur-Chalaronne","departement": "Ain", "region": "Rhône-Alpes", "population": 2.7, "adm_weight": 1, "importance": 0.0753}
{"id": "01349","type": "village","name": "Saint-Éloi","postcode": "01800","lat": "45.932957","lon": "5.151588","city": "Saint-Éloi","departement": "Ain", "region": "Rhône-Alpes", "population": 0.4, "adm_weight": 1, "importance": 0.075}
{"id": "01350","type": "town","name": "Saint-Étienne-du-Bois","postcode": "01370","lat": "46.287826","lon": "5.292883","city": "Saint-Étienne-du-Bois","departement": "Ain", "region": "Rhône-Alpes", "population": 2.4, "adm_weight": 1, "importance": 0.075}
{"id": "01351","type": "town","name": "Saint-Étienne-sur-Chalaronne","postcode": "01140","lat": "46.146103","lon": "4.865761","city": "Saint-Étienne-sur-Chalaronne","departement": "Ain", "region": "Rhône-Alpes", "population": 1.5, "adm_weight": 1, "importance": 0.075}
{"id": "01352","type": "village","name": "Saint-Étienne-sur-Reyssouze","postcode": "01190","lat": "46.412249","lon": "4.999871","city": "Saint-Étienne-sur-Reyssouze","departement": "Ain", "region": "Rhône-Alpes", "population": 0.5, "adm_weight": 1, "importance": 0.075}
{"id": "01353","type": "town","name": "Sainte-Euphémie","postcode": "01600","lat": "45.972457","lon": "4.797869","city": "Sainte-Euphémie","departement": "Ain", "region": "Rhône-Alpes", "population": 1.5, "adm_weight": 1, "importance": 0.075}
{"id": "01354","type": "town","name": "Saint-Genis-Pouilly","postcode": "01630","lat": "46.242902","lon": "6.020801","city": "Saint-Genis-Pouilly","departement": "Ain", "region": "Rhône-Alpes", "population": 8.6, "adm_weight": 1, "importance": 0.1230}
{"id": "01355","type": "village","name": "Saint-Genis-sur-Menthon","postcode": "01380","lat": "46.281494","lon": "5.008085","city": "Saint-Genis-sur-Menthon","departement": "Ain", "region": "Rhône-Alpes", "population": 0.4, "adm_weight": 1, "importance": 0.075}
{"id": "01356","type": "village","name": "Saint-Georges-sur-Renon","postcode": "01400","lat": "46.105428","lon": "5.031432","city": "Saint-Georges-sur-Renon","departement": "Ain", "region": "Rhône-Alpes", "population": 0.2, "adm_weight": 1, "importance": 0.075}
{"id": "01357","type": "village","name": "Saint-Germain-de-Joux","postcode": "01130","lat": "46.177070","lon": "5.738289","city": "Saint-Germain-de-Joux","departement": "Ain", "region": "Rhône-Alpes", "population": 0.5, "adm_weight": 1, "importance": 0.075}
{"id": "01358","type": "village","name": "Saint-Germain-les-Paroisses","postcode": "01300","lat": "45.772664","lon": "5.617813","city": "Saint-Germain-les-Paroisses","departement": "Ain", "region": "Rhône-Alpes", "population": 0.4, "adm_weight": 1, "importance": 0.075}
{"id": "01359","type": "village","name": "Saint-Germain-sur-Renon","postcode": "01240","lat": "46.080656","lon": "5.056405","city": "Saint-Germain-sur-Renon","departement": "Ain", "region": "Rhône-Alpes", "population": 0.2, "adm_weight": 1, "importance": 0.075}
{"id": "01360","type": "town","name": "Saint-Jean-de-Gonville","postcode": "01630","lat": "46.212278","lon": "5.951615","city": "Saint-Jean-de-Gonville","departement": "Ain", "region": "Rhône-Alpes", "population": 1.5, "adm_weight": 1, "importance": 0.075}
{"id": "01361","type": "town","name": "Saint-Jean-de-Niost","postcode": "01800","lat": "45.837997","lon": "5.217481","city": "Saint-Jean-de-Niost","departement": "Ain", "region": "Rhône-Alpes", "population": 1.4, "adm_weight": 1, "importance": 0.075}
{"id": "01362","type": "village","name": "Saint-Jean-de-Thurigneux","postcode": "01390","lat": "45.952189","lon": "4.881144","city": "Saint-Jean-de-Thurigneux","departement": "Ain", "region": "Rhône-Alpes", "population": 0.7, "adm_weight": 1, "importance": 0.075}
{"id": "01363","type": "town","name": "Saint-Jean-le-Vieux","postcode": "01640","lat": "46.028212","lon": "5.388110","city": "Saint-Jean-le-Vieux","departement": "Ain", "region": "Rhône-Alpes", "population": 1.6, "adm_weight": 1, "importance": 0.075}
{"id": "01364","type": "village","name": "Saint-Jean-sur-Reyssouze","postcode": "01560","lat": "46.395834","lon": "5.061761","city": "Saint-Jean-sur-Reyssouze","departement": "Ain", "region": "Rhône-Alpes", "population": 0.7, "adm_weight": 1, "importance": 0.075}
{"id": "01365","type": "town","name": "Saint-Jean-sur-Veyle","postcode": "01290","lat": "46.257877","lon": "4.915019","city": "Saint-Jean-sur-Veyle","departement": "Ain", "region": "Rhône-Alpes", "population": 1.1, "adm_weight": 1, "importance": 0.075}
{"id": "01366","type": "village","name": "Sainte-Julie","postcode": "01150","lat": "45.889951","lon": "5.277623","city": "Sainte-Julie","departement": "Ain", "region": "Rhône-Alpes", "population": 0.9, "adm_weight": 1, "importance": 0.075}
{"id": "01367","type": "village","name": "Saint-Julien-sur-Reyssouze","postcode": "01560","lat": "46.401255","lon": "5.110142","city": "Saint-Julien-sur-Reyssouze","departement": "Ain", "region": "Rhône-Alpes", "population": 0.6, "adm_weight": 1, "importance": 0.075}
{"id": "01368","type": "village","name": "Saint-Julien-sur-Veyle","postcode": "01540","lat": "46.201380","lon": "4.953260","city": "Saint-Julien-sur-Veyle","departement": "Ain", "region": "Rhône-Alpes", "population": 0.7, "adm_weight": 1, "importance": 0.075}
{"id": "01369","type": "village","name": "Saint-Just","postcode": "01250","lat": "46.189897","lon": "5.279707","city": "Saint-Just","departement": "Ain", "region": "Rhône-Alpes", "population": 0.9, "adm_weight": 1, "importance": 0.075}
{"id": "01370","type": "town","name": "Saint-Laurent-sur-Saône","postcode": "01750","lat": "46.305072","lon": "4.838690","city": "Saint-Laurent-sur-Saône","departement": "Ain", "region": "Rhône-Alpes", "population": 1.7, "adm_weight": 1, "importance": 0.075}
{"id": "01371","type": "town","name": "Saint-Marcel","postcode": "01390","lat": "45.948580","lon": "4.986907","city": "Saint-Marcel","departement": "Ain", "region": "Rhône-Alpes", "population": 1.2, "adm_weight": 1, "importance": 0.075}
{"id": "01372","type": "village","name": "Saint-Martin-de-Bavel","postcode": "01510","lat": "45.848764","lon": "5.676865","city": "Saint-Martin-de-Bavel","departement": "Ain", "region": "Rhône-Alpes", "population": 0.4, "adm_weight": 1, "importance": 0.075}
{"id": "01373","type": "town","name": "Saint-Martin-du-Frêne","postcode": "01430","lat": "46.138154","lon": "5.552302","city": "Saint-Martin-du-Frêne","departement": "Ain", "region": "Rhône-Alpes", "population": 1.1, "adm_weight": 1, "importance": 0.075}
{"id": "01374","type": "town","name": "Saint-Martin-du-Mont","postcode": "01160","lat": "46.101536","lon": "5.327841","city": "Saint-Martin-du-Mont","departement": "Ain", "region": "Rhône-Alpes", "population": 1.6, "adm_weight": 1, "importance": 0.075}
{"id": "01375","type": "village","name": "Saint-Martin-le-Châtel","postcode": "01310","lat": "46.281367","lon": "5.114614","city": "Saint-Martin-le-Châtel","departement": "Ain", "region": "Rhône-Alpes", "population": 0.8, "adm_weight": 1, "importance": 0.075}
{"id": "01376","type": "town","name": "Saint-Maurice-de-Beynost","postcode": "01700","lat": "45.829888","lon": "4.974902","city": "Saint-Maurice-de-Beynost","departement": "Ain", "region": "Rhône-Alpes", "population": 3.9, "adm_weight": 1, "importance": 0.0899}
{"id": "01378","type": "town","name": "Saint-Maurice-de-Gourdans","postcode": "01800","lat": "45.820421","lon": "5.194872","city": "Saint-Maurice-de-Gourdans","departement": "Ain", "region": "Rhône-Alpes", "population": 2.4, "adm_weight": 1, "importance": 0.075}
{"id": "01379","type": "village","name": "Saint-Maurice-de-Rémens","postcode": "01500","lat": "45.958464","lon": "5.275291","city": "Saint-Maurice-de-Rémens","departement": "Ain", "region": "Rhône-Alpes", "population": 0.7, "adm_weight": 1, "importance": 0.075}
{"id": "01380","type": "village","name": "Saint-Nizier-le-Bouchoux","postcode": "01560","lat": "46.459060","lon": "5.150178","city": "Saint-Nizier-le-Bouchoux","departement": "Ain", "region": "Rhône-Alpes", "population": 0.7, "adm_weight": 1, "importance": 0.075}
{"id": "01381","type": "village","name": "Saint-Nizier-le-Désert","postcode": "01320","lat": "46.055550","lon": "5.147330","city": "Saint-Nizier-le-Désert","departement": "Ain", "region": "Rhône-Alpes", "population": 0.9, "adm_weight": 1, "importance": 0.075}
{"id": "01382","type": "village","name": "Sainte-Olive","postcode": "01330","lat": "46.017979","lon": "4.932525","city": "Sainte-Olive","departement": "Ain", "region": "Rhône-Alpes", "population": 0.3, "adm_weight": 1, "importance": 0.075}
{"id": "01383","type": "town","name": "Saint-Paul-de-Varax","postcode": "01240","lat": "46.098248","lon": "5.128281","city": "Saint-Paul-de-Varax","departement": "Ain", "region": "Rhône-Alpes", "population": 1.5, "adm_weight": 1, "importance": 0.075}
{"id": "01384","type": "town","name": "Saint-Rambert-en-Bugey","postcode": "01230","lat": "45.947877","lon": "5.437577","city": "Saint-Rambert-en-Bugey","departement": "Ain", "region": "Rhône-Alpes", "population": 2.2, "adm_weight": 2, "importance": 0.3361}
{"id": "01385","type": "village","name": "Saint-Rémy","postcode": "01310","lat": "46.188477","lon": "5.168101","city": "Saint-Rémy","departement": "Ain", "region": "Rhône-Alpes", "population": 0.9, "adm_weight": 1, "importance": 0.075}
{"id": "01386","type": "town","name": "Saint-Sorlin-en-Bugey","postcode": "01150","lat": "45.884443","lon": "5.370273","city": "Saint-Sorlin-en-Bugey","departement": "Ain", "region": "Rhône-Alpes", "population": 1.1, "adm_weight": 1, "importance": 0.075}
{"id": "01387","type": "village","name": "Saint-Sulpice","postcode": "01340","lat": "46.319648","lon": "5.040688","city": "Saint-Sulpice","departement": "Ain", "region": "Rhône-Alpes", "population": 0.1, "adm_weight": 1, "importance": 0.075}
{"id": "01388","type": "town","name": "Saint-Trivier-de-Courtes","postcode": "01560","lat": "46.459438","lon": "5.081109","city": "Saint-Trivier-de-Courtes","departement": "Ain", "region": "Rhône-Alpes", "population": 1.0, "adm_weight": 2, "importance": 0.3223}
{"id": "01389","type": "town","name": "Saint-Trivier-sur-Moignans","postcode": "01990","lat": "46.072605","lon": "4.898209","city": "Saint-Trivier-sur-Moignans","departement": "Ain", "region": "Rhône-Alpes", "population": 1.9, "adm_weight": 2, "importance": 0.3333}
{"id": "01390","type": "village","name": "Saint-Vulbas","postcode": "01150","lat": "45.832931","lon": "5.290735","city": "Saint-Vulbas","departement": "Ain", "region": "Rhône-Alpes", "population": 0.9, "adm_weight": 1, "importance": 0.075}
{"id": "01391","type": "village","name": "Salavre","postcode": "01270","lat": "46.363328","lon": "5.345498","city": "Salavre","departement": "Ain", "region": "Rhône-Alpes", "population": 0.3, "adm_weight": 1, "importance": 0.075}
{"id": "01392","type": "village","name": "Samognat","postcode": "01580","lat": "46.257446","lon": "5.576047","city": "Samognat","departement": "Ain", "region": "Rhône-Alpes", "population": 0.7, "adm_weight": 1, "importance": 0.075}
{"id": "01393","type": "village","name": "Sandrans","postcode": "01400","lat": "46.063087","lon": "4.980695","city": "Sandrans","departement": "Ain", "region": "Rhône-Alpes", "population": 0.5, "adm_weight": 1, "importance": 0.075}
{"id": "01396","type": "town","name": "Sault-Brénaz","postcode": "01150","lat": "45.854795","lon": "5.408967","city": "Sault-Brénaz","departement": "Ain", "region": "Rhône-Alpes", "population": 1.0, "adm_weight": 1, "importance": 0.075}
{"id": "01397","type": "town","name": "Sauverny","postcode": "01220","lat": "46.315172","lon": "6.114530","city": "Sauverny","departement": "Ain", "region": "Rhône-Alpes", "population": 1.1, "adm_weight": 1, "importance": 0.075}
{"id": "01398","type": "town","name": "Savigneux","postcode": "01480","lat": "46.000497","lon": "4.846606","city": "Savigneux","departement": "Ain", "region": "Rhône-Alpes", "population": 1.2, "adm_weight": 1, "importance": 0.075}
{"id": "01399","type": "town","name": "Ségny","postcode": "01170","lat": "46.296470","lon": "6.073162","city": "Ségny","departement": "Ain", "region": "Rhône-Alpes", "population": 1.6, "adm_weight": 1, "importance": 0.075}
{"id": "01400","type": "village","name": "Seillonnaz","postcode": "01470","lat": "45.806205","lon": "5.489291","city": "Seillonnaz","departement": "Ain", "region": "Rhône-Alpes", "population": 0.1, "adm_weight": 1, "importance": 0.075}
{"id": "01401","type": "town","name": "Sergy","postcode": "01630","lat": "46.252484","lon": "5.999247","city": "Sergy","departement": "Ain", "region": "Rhône-Alpes", "population": 1.8, "adm_weight": 1, "importance": 0.075}
{"id": "01402","type": "village","name": "Sermoyer","postcode": "01190","lat": "46.499073","lon": "4.979578","city": "Sermoyer","departement": "Ain", "region": "Rhône-Alpes", "population": 0.7, "adm_weight": 1, "importance": 0.075}
{"id": "01403","type": "town","name": "Serrières-de-Briord","postcode": "01470","lat": "45.807894","lon": "5.453296","city": "Serrières-de-Briord","departement": "Ain", "region": "Rhône-Alpes", "population": 1.1, "adm_weight": 1, "importance": 0.075}
{"id": "01404","type": "village","name": "Serrières-sur-Ain","postcode": "01450","lat": "46.152107","lon": "5.450541","city": "Serrières-sur-Ain","departement": "Ain", "region": "Rhône-Alpes", "population": 0.1, "adm_weight": 1, "importance": 0.075}
{"id": "01405","type": "town","name": "Servas","postcode": "01960","lat": "46.132693","lon": "5.164601","city": "Servas","departement": "Ain", "region": "Rhône-Alpes", "population": 1.2, "adm_weight": 1, "importance": 0.075}
{"id": "01406","type": "village","name": "Servignat","postcode": "01560","lat": "46.433547","lon": "5.068397","city": "Servignat","departement": "Ain", "region": "Rhône-Alpes", "population": 0.2, "adm_weight": 1, "importance": 0.075}
{"id": "01407","type": "village","name": "Seyssel","postcode": "01420","lat": "45.958547","lon": "5.830774","city": "Seyssel","departement": "Ain", "region": "Rhône-Alpes", "population": 0.9, "adm_weight": 2, "importance": 0.3208}
{"id": "01408","type": "village","name": "Simandre-sur-Suran","postcode": "01250","lat": "46.224916","lon": "5.416155","city": "Simandre-sur-Suran","departement": "Ain", "region": "Rhône-Alpes", "population": 0.6, "adm_weight": 1, "importance": 0.075}
{"id": "01409","type": "village","name": "Songieu","postcode": "01260","lat": "45.972531","lon": "5.700975","city": "Songieu","departement": "Ain", "region": "Rhône-Alpes", "population": 0.1, "adm_weight": 1, "importance": 0.075}
{"id": "01410","type": "village","name": "Sonthonnax-la-Montagne","postcode": "01580","lat": "46.232508","lon": "5.522944","city": "Sonthonnax-la-Montagne","departement": "Ain", "region": "Rhône-Alpes", "population": 0.3, "adm_weight": 1, "importance": 0.075}
{"id": "01411","type": "village","name": "Souclin","postcode": "01150","lat": "45.876232","lon": "5.417642","city": "Souclin","departement": "Ain", "region": "Rhône-Alpes", "population": 0.3, "adm_weight": 1, "importance": 0.075}
{"id": "01412","type": "village","name": "Sulignat","postcode": "01400","lat": "46.176896","lon": "4.962761","city": "Sulignat","departement": "Ain", "region": "Rhône-Alpes", "population": 0.6, "adm_weight": 1, "importance": 0.075}
{"id": "01413","type": "village","name": "Surjoux","postcode": "01420","lat": "46.024144","lon": "5.801814","city": "Surjoux","departement": "Ain", "region": "Rhône-Alpes", "population": 0.1, "adm_weight": 1, "importance": 0.075}
{"id": "01414","type": "village","name": "Sutrieu","postcode": "01260","lat": "45.951010","lon": "5.658585","city": "Sutrieu","departement": "Ain", "region": "Rhône-Alpes", "population": 0.2, "adm_weight": 1, "importance": 0.075}
{"id": "01415","type": "village","name": "Talissieu","postcode": "01510","lat": "45.865655","lon": "5.724114","city": "Talissieu","departement": "Ain", "region": "Rhône-Alpes", "population": 0.4, "adm_weight": 1, "importance": 0.075}
{"id": "01416","type": "town","name": "Tenay","postcode": "01230","lat": "45.919325","lon": "5.507311","city": "Tenay","departement": "Ain", "region": "Rhône-Alpes", "population": 1.1, "adm_weight": 1, "importance": 0.075}
{"id": "01417","type": "village","name": "Thézillieu","postcode": "01110","lat": "45.892899","lon": "5.600299","city": "Thézillieu","departement": "Ain", "region": "Rhône-Alpes", "population": 0.3, "adm_weight": 1, "importance": 0.075}
{"id": "01418","type": "town","name": "Thil","postcode": "01120","lat": "45.813764","lon": "5.020699","city": "Thil","departement": "Ain", "region": "Rhône-Alpes", "population": 1.1, "adm_weight": 1, "importance": 0.075}
{"id": "01419","type": "town","name": "Thoiry","postcode": "01710","lat": "46.235898","lon": "5.978859","city": "Thoiry","departement": "Ain", "region": "Rhône-Alpes", "population": 5.0, "adm_weight": 1, "importance": 0.1002}
{"id": "01420","type": "town","name": "Thoissey","postcode": "01140","lat": "46.172355","lon": "4.801828","city": "Thoissey","departement": "Ain", "region": "Rhône-Alpes", "population": 1.5, "adm_weight": 2, "importance": 0.3289}
{"id": "01421","type": "village","name": "Torcieu","postcode": "01230","lat": "45.921757","lon": "5.395114","city": "Torcieu","departement": "Ain", "region": "Rhône-Alpes", "population": 0.7, "adm_weight": 1, "importance": 0.075}
{"id": "01422","type": "town","name": "Tossiat","postcode": "01250","lat": "46.140558","lon": "5.313944","city": "Tossiat","departement": "Ain", "region": "Rhône-Alpes", "population": 1.4, "adm_weight": 1, "importance": 0.075}
{"id": "01423","type": "village","name": "Toussieux","postcode": "01600","lat": "45.960258","lon": "4.828467","city": "Toussieux","departement": "Ain", "region": "Rhône-Alpes", "population": 0.8, "adm_weight": 1, "importance": 0.075}
{"id": "01424","type": "town","name": "Tramoyes","postcode": "01390","lat": "45.876001","lon": "4.964947","city": "Tramoyes","departement": "Ain", "region": "Rhône-Alpes", "population": 1.7, "adm_weight": 1, "importance": 0.075}
{"id": "01425","type": "village","name": "La Tranclière","postcode": "01160","lat": "46.110998","lon": "5.260888","city": "La Tranclière","departement": "Ain", "region": "Rhône-Alpes", "population": 0.3, "adm_weight": 1, "importance": 0.075}
{"id": "01426","type": "town","name": "Treffort-Cuisiat","postcode": "01370","lat": "46.270983","lon": "5.367523","city": "Treffort-Cuisiat","departement": "Ain", "region": "Rhône-Alpes", "population": 2.1, "adm_weight": 2, "importance": 0.3352}
{"id": "01427","type": "town","name": "Trévoux","postcode": "01600","lat": "45.940394","lon": "4.774875","city": "Trévoux","departement": "Ain", "region": "Rhône-Alpes", "population": 6.7, "adm_weight": 2, "importance": 0.3609}
{"id": "01428","type": "village","name": "Valeins","postcode": "01140","lat": "46.111787","lon": "4.871071","city": "Valeins","departement": "Ain", "region": "Rhône-Alpes", "population": 0.1, "adm_weight": 1, "importance": 0.075}
{"id": "01429","type": "village","name": "Vandeins","postcode": "01660","lat": "46.217177","lon": "5.078397","city": "Vandeins","departement": "Ain", "region": "Rhône-Alpes", "population": 0.6, "adm_weight": 1, "importance": 0.075}
{"id": "01430","type": "village","name": "Varambon","postcode": "01160","lat": "46.039615","lon": "5.316164","city": "Varambon","departement": "Ain", "region": "Rhône-Alpes", "population": 0.5, "adm_weight": 1, "importance": 0.075}
{"id": "01431","type": "town","name": "Vaux-en-Bugey","postcode": "01150","lat": "45.928051","lon": "5.352784","city": "Vaux-en-Bugey","departement": "Ain", "region": "Rhône-Alpes", "population": 1.1, "adm_weight": 1, "importance": 0.075}
{"id": "01432","type": "village","name": "Verjon","postcode": "01270","lat": "46.345220","lon": "5.349925","city": "Verjon","departement": "Ain", "region": "Rhône-Alpes", "population": 0.2, "adm_weight": 1, "importance": 0.075}
{"id": "01433","type": "village","name": "Vernoux","postcode": "01560","lat": "46.480540","lon": "5.109298","city": "Vernoux","departement": "Ain", "region": "Rhône-Alpes", "population": 0.3, "adm_weight": 1, "importance": 0.075}
{"id": "01434","type": "village","name": "Versailleux","postcode": "01330","lat": "45.979812","lon": "5.103028","city": "Versailleux","departement": "Ain", "region": "Rhône-Alpes", "population": 0.3, "adm_weight": 1, "importance": 0.075}
{"id": "01435","type": "town","name": "Versonnex","postcode": "01210","lat": "46.302136","lon": "6.096884","city": "Versonnex","departement": "Ain", "region": "Rhône-Alpes", "population": 2.1, "adm_weight": 1, "importance": 0.075}
{"id": "01436","type": "village","name": "Vesancy","postcode": "01170","lat": "46.348271","lon": "6.090389","city": "Vesancy","departement": "Ain", "region": "Rhône-Alpes", "population": 0.5, "adm_weight": 1, "importance": 0.075}
{"id": "01437","type": "village","name": "Vescours","postcode": "01560","lat": "46.474870","lon": "5.024331","city": "Vescours","departement": "Ain", "region": "Rhône-Alpes", "population": 0.2, "adm_weight": 1, "importance": 0.075}
{"id": "01439","type": "village","name": "Vésines","postcode": "01570","lat": "46.358663","lon": "4.866512","city": "Vésines","departement": "Ain", "region": "Rhône-Alpes", "population": 0.1, "adm_weight": 1, "importance": 0.075}
{"id": "01441","type": "village","name": "Vieu-d'Izenave","postcode": "01430","lat": "46.080116","lon": "5.528891","city": "Vieu-d'Izenave","departement": "Ain", "region": "Rhône-Alpes", "population": 0.7, "adm_weight": 1, "importance": 0.075}
{"id": "01442","type": "village","name": "Vieu","postcode": "01260","lat": "45.890972","lon": "5.682785","city": "Vieu","departement": "Ain", "region": "Rhône-Alpes", "population": 0.4, "adm_weight": 1, "importance": 0.075}
{"id": "01443","type": "town","name": "Villars-les-Dombes","postcode": "01330","lat": "46.001882","lon": "5.028901","city": "Villars-les-Dombes","departement": "Ain", "region": "Rhône-Alpes", "population": 4.3, "adm_weight": 2, "importance": 0.3505}
{"id": "01444","type": "town","name": "Villebois","postcode": "01150","lat": "45.847043","lon": "5.434411","city": "Villebois","departement": "Ain", "region": "Rhône-Alpes", "population": 1.1, "adm_weight": 1, "importance": 0.075}
{"id": "01445","type": "village","name": "Villemotier","postcode": "01270","lat": "46.345832","lon": "5.320031","city": "Villemotier","departement": "Ain", "region": "Rhône-Alpes", "population": 0.6, "adm_weight": 1, "importance": 0.075}
{"id": "01446","type": "town","name": "Villeneuve","postcode": "01480","lat": "46.020491","lon": "4.835641","city": "Villeneuve","departement": "Ain", "region": "Rhône-Alpes", "population": 1.4, "adm_weight": 1, "importance": 0.075}
{"id": "01447","type": "town","name": "Villereversure","postcode": "01250","lat": "46.191098","lon": "5.396503","city": "Villereversure","departement": "Ain", "region": "Rhône-Alpes", "population": 1.2, "adm_weight": 1, "importance": 0.075}
{"id": "01448","type": "village","name": "Villes","postcode": "01200","lat": "46.087648","lon": "5.784334","city": "Villes","departement": "Ain", "region": "Rhône-Alpes", "population": 0.4, "adm_weight": 1, "importance": 0.075}
{"id": "01449","type": "village","name": "Villette-sur-Ain","postcode": "01320","lat": "45.987449","lon": "5.267443","city": "Villette-sur-Ain","departement": "Ain", "region": "Rhône-Alpes", "population": 0.7, "adm_weight": 1, "importance": 0.075}
{"id": "01450","type": "town","name": "Villieu-Loyes-Mollon","postcode": "01800","lat": "45.919884","lon": "5.222068","city": "Villieu-Loyes-Mollon","departement": "Ain", "region": "Rhône-Alpes", "population": 3.0, "adm_weight": 1, "importance": 0.0794}
{"id": "01451","type": "town","name": "Viriat","postcode": "01440","lat": "46.253312","lon": "5.216118","city": "Viriat","departement": "Ain", "region": "Rhône-Alpes", "population": 5.9, "adm_weight": 2, "importance": 0.3579}
{"id": "01452","type": "town","name": "Virieu-le-Grand","postcode": "01510","lat": "45.848472","lon": "5.651064","city": "Virieu-le-Grand","departement": "Ain", "region": "Rhône-Alpes", "population": 1.1, "adm_weight": 2, "importance": 0.3237}
{"id": "01453","type": "village","name": "Virieu-le-Petit","postcode": "01260","lat": "45.908015","lon": "5.723627","city": "Virieu-le-Petit","departement": "Ain", "region": "Rhône-Alpes", "population": 0.3, "adm_weight": 1, "importance": 0.075}
{"id": "01454","type": "village","name": "Virignin","postcode": "01300","lat": "45.717256","lon": "5.712944","city": "Virignin","departement": "Ain", "region": "Rhône-Alpes", "population": 0.8, "adm_weight": 1, "importance": 0.075}
{"id": "01456","type": "village","name": "Vongnes","postcode": "01350","lat": "45.814296","lon": "5.724156","city": "Vongnes","departement": "Ain", "region": "Rhône-Alpes", "population": 0.1, "adm_weight": 1, "importance": 0.075}
{"id": "01457","type": "town","name": "Vonnas","postcode": "01540","lat": "46.218754","lon": "4.990214","city": "Vonnas","departement": "Ain", "region": "Rhône-Alpes", "population": 2.7, "adm_weight": 1, "importance": 0.0753}
{"id": "01001A008W","citycode":"01001","type": "street","name": "Lotissement Bellevue","postcode": "01400","lat": "46.134530","lon": "4.924240","city": "L'Abergement-Clémenciat","departement": "Ain", "region": "Rhône-Alpes","importance": 0.0185 ,"housenumbers":{"1": {"lat": 46.134566,"lon": 4.924122},"2": {"lat": 46.134634,"lon": 4.924168},"4": {"lat": 46.134637,"lon": 4.924353},"5": {"lat": 46.134519,"lon": 4.924334},